Logradouro,Endereco,Numero,Complemento,Bairro,Cidade,Estado,Pais,Cep,Latitude,Longitude
PRACA,FELIX PACHECO 632,1190,,,PICOS,,,64600-082,-7.082205,-41.468264
RUA,DOM EMANUEL 0,1192,,,SENADOR CANEDO,,,75250-000,-16.705531,-49.095157
AVE,DANIEL DE LA TOUCHE 987 SUC405 AB,1195,,,SAO LUIS,,,65074-115,-2.527688,-44.255014
AVENIDA,LEOPOLDINO DE OLIVEIRA 5100 LJ AN 5 P2,1196,,,UBERABA,,,38060-000,-19.738157,-47.943582
RUA,NAIR MESQUITA 4,1200,,,MACAIBA,,,59280-000,-5.85671,-35.352196
RUA,JOCKEY CLUBE 343 ANCORA 4,26,,,RIO GRANDE,,,96212-730,-32.048868,-52.147752
RODOVIA,BR-101 0 KM 295,51,,,ITABORAI,,,24809-234,-22.767277,-42.905877
RUA,SACADURA CABRAL 102,54,,,RIO DE JANEIRO,,,20081-260,-22.897523,-43.184348
AVN,AMARAL PEIXOTO 559,76,,,VOLTA REDONDA,,,27253-223,-22.511503,-44.086895
RUA,DOUTOR PEDRO LUIZ 255 LJ 45 2(o) P,374,,,SETE LAGOAS,,,35700-004,-19.458756,-44.244106
RODOVIA,AMARAL PEIXOTO 455 LT 13 QD A,662,,,CASIMIRO DE ABREU,,,28860-000,-22.590834,-41.992655
AVENIDA,AFONSO PENA 554,673,,,NATAL,,,59020-065,-5.788331,-35.197385
AVENIDA,BRASIL 0 LUC 16,690,,,SERRA,,,29163-165,-20.222069,-40.253065
RUA,ACADEMICO NILO FIGUEIREDO 1723 LUC 28 29,691,,,LAGOA SANTA,,,33400-000,-19.6383,-43.904622
AVENIDA,REPUBLICA ARGENTINA 1115 LJS 1 E 2,692,,,CURITIBA,,,80620-010,-25.45649,-49.28841
RUA,PADRE EUSTAQUIO 2203,693,,,BELO HORIZONTE,,,30720-100,-19.915147,-43.973664
AVENIDA,MANOEL RIBAS 332,703,,,UNIAO DA VITORIA,,,84600-000,-26.230247,-51.087168
RUA,BARAO DO RIO BRANCO 186,704,,,SAO BENTO DO SUL,,,89280-355,-26.248101,-49.380947
RUA,PRESIDENTE CARLOS CAVALCANTI 249,705,,,ARAUCARIA,,,83702-470,-25.426794,-49.267511
AVENIDA,DOUTOR BELMINO CORREIA 2263 QD B LT 4,706,,,CAMARAGIBE,,,54762-303,-8.019289,-34.975746
RUA,URSULA PAULINO 1417 1461 LJ1E2,707,,,BELO HORIZONTE,,,30580-353,-19.960128,-43.989082
AVENIDA,DARCY VARGAS 2216 CASA 1 E 2,709,,,DUQUE DE CAXIAS,,,25237-010,-22.757282,-43.305904
PRACA,DA BANDEIRA 179,710,,,RIO DE JANEIRO,,,20270-150,-22.910939,-43.213948
AVENIDA,FERNANDO COSTA 222,711,,,CAJATI,,,11950-000,-24.728766,-48.123473
AVENIDA,BRASIL 2190 LOJA 01,712,,,ABREU E LIMA,,,53565-040,-7.855604,-34.905559
AVENIDA,PAULO DE FRONTIN 738,713,,,VOLTA REDONDA,,,27213-270,-22.505508,-44.092252
AVENIDA,NOSSA SENHORA DA PENHA 415 LOJA 01,714,,,VITORIA,,,29056-250,-20.292135,-40.302409
AVENIDA,MATEO BEI 1998 LT 04,715,,,SAO PAULO,,,03949-200,-23.599794,-46.484442
AVENIDA,JOAO SACAVEM 196,716,,,NAVEGANTES,,,88370-438,-26.901108,-48.652329
RUA,SETE DE SETEMBRO 44,717,,,SURUBIM,,,55750-000,-7.837549,-35.75841
RUA,ORESTE MAZONI 21 E 31,718,,,INDAIATUBA,,,13345-416,-23.104403,-47.219322
PRACA,GERALDO COSTA 58,719,,,TREMEMBE,,,12120-000,-22.968231,-45.550972
RUA,DA MATRIZ 39,720,,,BEZERROS,,,55660-000,-8.23571,-35.754223
RUA,JOAO GOMES 48,721,,,SALVADOR,,,41950-640,-13.011661,-38.491386
RUA,L 0 LT 16 QD15,722,,,CABO FRIO,,,28927-000,-22.823496,-42.000931
RUA,FRANCISCO CLAUDINO DOS SANTO 180,723,,,FAZENDA RIO GRANDE,,,83833-056,-25.644762,-49.314647
RUA,FRANCISCO DESLANDES 900 L161 P L01,725,,,BELO HORIZONTE,,,30310-530,-19.951323,-43.927911
AVENIDA,DEZESSETE DE AGOSTO 1476,726,,,RECIFE,,,52061-540,-8.035133,-34.920621
RODOVIA,BR-101 SUL 9415 GP A,966,,,CABO DE SANTO AGOSTINHO,,,54510-000,-8.325862,-35.099409
AV,ANHANGUERA 5562,33,,,GOIANIA,,,74043-010,-16.66953996,-49.30221672
SCS,Q 04 BLOCO A LOJA 11 0,35,,,BRASILIA,,,70300-500,-15.67901326,-48.1926823
AV,IGUATEMI 777,38,,,CAMPINAS,,,13094-900,-22.893526,-47.028891
ROD,BR 356 3049 LJ BH17,40,,,BELO HORIZONTE,,,30330-000,-19.98450624,-43.98062825
AV,IBIRAPUERA 3101,43,,,SAO PAULO,,,04029-200,-23.609622,-46.667912
AV,PRINCESA ISABEL 475,45,,,VITORIA,,,29010-361,-20.319604,-40.330379
RUA,BARAO DO RIO BRANCO 922,47,,,FORTALEZA,,,60025-000,-3.727950384,-38.52869243
PRACA,TUBAL VILELA 252 NA 272,49,,,UBERLANDIA,,,38400-186,-18.920547,-48.277654
AVENIDA,GOVERNADOR AGAMENON MAGALHAES 153 LJ 100,56,,,RECIFE,,,50110-900,-8.036963,-34.872195
RUA,EPAMINONDAS OTONI 813 LT 41 QD 2,78,,,TEOFILO OTONI,,,39800-013,-17.86279,-41.508767
PCA,CANDIDO MENDES 348,80,,,CAXIAS,,,65606-010,-4.86176,-43.362841
RUA,MARCIANO SANTOS 353,82,,,ARAGUARI,,,38440-128,-18.651534,-48.192411
AVENIDA,JOSE JOAQUIM SEABRA 368 N 370,84,,,SALVADOR,,,40025-001,-12.968497,-38.505282
AV,DEP BENEDITO  MATARAZ 9403 LJ E,86,,,SAO JOSE DOS CAMPOS,,,12216-580,-23.19490361,-45.8719673
RUA,PE CARAPUCEIRO 777 LJ 117/118,88,,,RECIFE,,,51020-900,-8.117257497,-34.90139805
ETR,DO MONTEIRO 1200 LUC 101 P,90,,,RIO DE JANEIRO,,,23045-830,-22.928592,-43.573609
RUA,JOSE EDUARDO VIEIRA 1584,93,,,JI PARANA,,,76908-404,-10.881614,-61.92571
ESTRADA,DO MENDANHA 555 SUC 103,95,,,RIO DE JANEIRO,,,23087-281,-22.883665,-43.556788
AVENIDA,CRISTIANO MACHADO 11833 LUC 317318,97,,,BELO HORIZONTE,,,31744-007,-19.820949,-43.946034
AV,EDMEIA MATTOS LAZAROTTI 1655 LJ 140 PS1,99,,,BETIM,,,32632-090,-19.944064,-44.188049
RUA,DOMINGOS AGOSTIM S/N LJ 03,101,,,SAO PAULO,,,03306-010,-23.542236,-46.577103
RUA,OLAVO BARRETO VIANA 36 LJ 101,118,,,PORTO ALEGRE,,,90570-070,-30.02428,-51.201109
AVENIDA,DAS NACOES UNIDAS 13947 LJ 112,120,,,SAO PAULO,,,04794-000,-23.52029036,-46.74615387
AV,GENERAL BARRETO DE MENEZES 800 LJ 186,123,,,JABOATAO DOS GUARARAPES,,,54325-000,-8.134721972,-34.97579915
AVENIDA,GISELE CONSTANTINO 1870 LUC F,125,,,VOTORANTIM,,,18110-650,-23.53355037,-47.46538355
AV,JAMEL CECILIO 3300 QD B 34LT2,128,,,GOIANIA,,,74810-100,-16.70985203,-49.23303424
RUA,DOS RODOVIARIOS S/N SUC 60.1,130,,,SALVADOR,,,41150-125,-12.967576,-38.476244
RODOVIA,AUGUSTO MONTENEGRO 4300 LOJA 1000,133,,,BELEM,,,66635-110,-1.371621,-48.443595
AV,MINISTRO GERALDO BARRETO SOBRAL 215 LOJA 147,136,,,ARACAJU,,,49026-010,-10.94224,-37.057819
ESTRADA,DO TINDIBA 1973,139,,,RIO DE JANEIRO,,,22740-361,-22.924495,-43.370909
ESTRADA,DA RIBEIRA BR-476 3001 LJ2 TERREO,142,,,COLOMBO,,,83408-000,-25.365996,-49.187214
RUA,GERONCIO THIVES 1079 SUC 23 B,158,,,SAO JOSE,,,88117-900,-27.58658222,-48.60813528
ACESSO,HEITOR DE SOUZA PINHEIRO 2270 SUC 503,161,,,ARARAQUARA,,,14801-600,-21.78276261,-48.19433832
AV,VICENTE DE CARVALHO 909 LJ 201,164,,,RIO DE JANEIRO,,,21371-120,-22.8508872,-43.31023774
AV,JOAO CESAR DE OLIVEIRA 1275  PS02 LJB,167,,,CONTAGEM,,,32315-000,-19.943048,-44.040003
RUA,VISCONDE DE TAUNAY 235 L A4 3PISO,172,,,JOINVILLE,,,89201-908,-26.30314362,-48.8498429
AV,PASTOR MARTIN LUTHER KING JUNIOR 126 BL01 LJB P,175,,,RIO DE JANEIRO,,,20760-005,-22.879537,-43.270734
AVENIDA,ALLAN KARDEC 1451 LJ ANCOR B,178,,,BEBEDOURO,,,14701-464,-20.94892238,-48.49247048
QUADRA,0 0 LT 6A LOJA,183,,,AGUAS LINDAS DE GOIAS,,,72910-000,-15.750045,-48.297275
AV,DEPUTADO ODON BEZERRA 184 L1-02/50-6,198,,,JOAO PESSOA,,,58020-500,-7.115261995,-34.88047338
AVENIDA,VILARINHO 1167 LOJA 2 E 3,201,,,BELO HORIZONTE,,,31615-250,-19.816615,-43.953646
AVENIDA,GUANABARA 2919 BOX 2/3/4,203,,,ANDRADINA,,,16901-100,-22.864973,-47.216587
AVE,CONSUL ASSAF TRAD 4796 LOJA 292,1016,,,CAMPO GRANDE,,,79013-545,-20.408927,-54.572086
AVENIDA,OTAVIO CAMPELO RIBEIRO 2801 LUC 214 A/,1018,,,SETE LAGOAS,,,35702-970,-19.472879,-44.271928
AVENIDA,COMENDADOR TELES 2425,1021,,,SAO JOAO DE MERITI,,,25561-161,-22.77564,-43.359103
AVENIDA,REBOUCAS 3970 LUC 2070,1025,,,SAO PAULO,,,05402-918,-23.574195,-46.696692
AVENIDA,CENTENARIO 555 LOJA 111,1027,,,GRAVATAI,,,94035-240,-29.9494679,-50.9956356
RODOVIA,JK (BR  459) KM 107 0 LOJA A 03,1030,,,POUSO ALEGRE,,,37550-000,-18.872624,-41.957838
AVENIDA,AMERICO DEOLINDO GARLA 224 LUC A4,1034,,,LONDRINA,,,86079-225,-23.29273,-51.17321
RUA,GUAICUI 26 LOJA 03,1038,,,BELO HORIZONTE,,,30380-380,-19.945707,-43.949552
AVENIDA,HENRIQUE DE HOLANDA 3000 LUC 1010,1041,,,VITORIA DE SANTO ANTAO,,,55612-025,-8.118809,-35.305137
AVENIDA, JK 0 Q09 L 2A,1049,,,AGUAS LINDAS DE GOIAS,,,72910-000,-15.735353,-48.283196
RUA,COLOMBIA 481 LOJA 2047,1055,,,GUARUJA,,,11440-360,-23.983253,-46.234056
PRACA,MELO VIANA 82,1057,,,PARA DE MINAS,,,35660-031,-19.865068,-44.603044
AVENIDA,LINEU MACHADO 419 ESP COML,1079,,,FORTALEZA,,,60520-101,-3.763994,-38.575852
RUA,DO MERCURIO 161 LOJA C,1082,,,RIO DE JANEIRO,,,21532-470,-22.806097,-43.363668
PRACA,DOUTOR  MARIO DOURADO SOBRINHO 43,1084,,,IRECE,,,44900-000,-11.302579,-41.855593
AVENIDA,CAPITAO INDIO BANDEIRA 1841,1086,,,CAMPO MOURAO,,,87300-005,-24.03976,-52.373224
RUA,DOUTOR JORGE XAVIER DA SILVA 0,1096,,,CASTRO,,,84165-000,-24.790234,-50.008749
AVENIDA,INDEPENDENCIA 0 LOJAS 3,1099,,,APARECIDA DE GOIANIA,,,74968-970,-16.822493,-49.256922
AVENIDA,AUTAZ MIRIM 282 LOJA 01,1107,,,MANAUS,,,69087-215,-3.047943,-59.944187
RUA,GERMANO FRANCK 300,1109,,,FORTALEZA,,,60740-020,-3.77494,-38.55944
RUA,SETE DE SETEMBRO 2467,1119,,,ALTAMIRA,,,68371-000,-3.208625,-52.213365
RUA,DIREITA 151,1,,,SAO PAULO,,,01002-001,-23.54810521,-46.63562658
RUA,VISCONDE DO URUGUAI 503 507 E CEL,3,,,NITEROI,,,24030-077,-22.89243357,-43.12223622
AVENIDA,BRIGADEIRO FARIA LIMA 2232 C 3,6,,,SAO PAULO,,,01451-000,-23.576527,-46.687172
RUA,JOAO PESSOA 35,8,,,SANTOS,,,11013-001,-23.93430552,-46.3302473
RUA,JOAO PESSOA 134,575,,,LEME,,,13610-110,-22.184755,-47.384393
RUA,CATAO 72,576,,,SAO PAULO,,,05049-901,-23.521592,-46.700916
RUA,RIACHUELO 92 LOJA C,577,,,RIO DE JANEIRO,,,20230-014,-22.914324,-43.183292
AV,CONTORNO 1413,578,,,BELO HORIZONTE,,,30110-005,-19.913088,-43.930887
AVENIDA,BRASILIA 2228,579,,,BELO HORIZONTE,,,33105-440,-19.786492,-43.927343
AV,DOUTOR JOSE AUGUSTO MOREIRA 500,580,,,OLINDA,,,53130-410,-7.985611,-34.83831
AV,"FREI ORESTES GIRARDI 1315 N1319,1325",581,,,CAMPOS DE JORDAO,,,12460-000,-22.738473,-45.592415
RUA,TEODORO SAMPAIO 2174,582,,,SAO PAULO,,,05406-150,-23.564484,-46.689116
RUA,SANTA ROSA 47 LJ 101/102,583,,,NITEROI,,,24240-225,-22.899409,-43.092526
AVENIDA,VISCONDE DE INHAUMA 973,584,,,SAO CAETANO DO SUL,,,09571-390,-23.629851,-46.566623
RUA,CORONEL FRANCISCO SOARES 202,585,,,NOVA IGUACU,,,26220-032,-22.761494,-43.44739
RODOVIA,"RAPOSO TAVARES K 1.4,5 SUC 3041PI",586,,,SAO PAULO,,,05576-100,-23.586447,-46.750867
RUA,MARECHAL SOARES DE ANDREA 310 LJS A E B,587,,,RIO DE JANEIRO,,,21710-180,-22.879457,-43.42878
RUA,RUI BARBOSA 24,589,,,VITORIA DE SANTO ANTAO,,,55602-240,-8.120944,-35.305019
AVENIDA,CAXANGA 2271,590,,,RECIFE,,,50721-000,-8.046922,-34.927635
AV,18 DO FORTE 160,592,,,SAO GONCALO,,,24460-005,-22.822485,-43.045189
ESTRADA,MUNICIPAL 200 PIRAT L201,594,,,ANGRA DOS REIS,,,23907-900,-23.003153,-44.298544
RUA,TUIUTI 2117 TERREO,595,,,SAO PAULO,,,03307-005,-23.544484,-46.574548
RUA,SAO LUIZ GONZAGA 392 E 392 A,597,,,RIO DE JANEIRO,,,20910-060,-22.899827,-43.226436
RUA,SETE DE DEZEMBRO 520,598,,,BIRIGUI,,,16200-050,-21.289651,-50.342159
AVENIDA,MARECHAL TITO 4320,600,,,SAO PAULO,,,08115-000,-23.495547,-46.404258
RUA,BERNARDO VIEIRA DE MELO 42,601,,,CARPINA,,,55815-100,-7.84579,-35.25488
AVENIDA,CARLOS LINDENBERG 710,603,,,VILA VELHA,,,29122-036,-20.338333,-40.304182
RUA,SETE DE SETEMBRO 179,605,,,CACAPAVA,,,12281-620,-23.100255,-45.706935
RUA,MINISTRO ARY FRANCO 77,607,,,RIO DE JANEIRO,,,21862-005,-22.874298,-43.464889
AVENIDA,EMILIO RIBAS 2004,609,,,GUARULHOS,,,07050-000,-23.461987,-46.555595
RUA,DOUTOR ANTONIO ALVES 140 TERREO,610,,,SAO PEDRO DA ALDEIA,,,28940-970,-22.828283,-42.097654
AVENIDA,CONTAGEM 1322 SUC100/101,612,,,SABARA,,,34710-000,-19.883881,-43.907202
ESTRADA,DOS BANDEIRANTES 8591,613,,,RIO DE JANEIRO,,,22783-115,-22.974712,-43.414795
RUA,TIRADENTES 2629,615,,,CONTAGEM,,,32230-020,-22.066441,-42.924029
RUA,URANOS 1033 1035,617,,,RIO DE JANEIRO,,,21060-425,-22.854639,-43.260715
AVENIDA,ALBERTO BYINGTON 1933,618,,,SAO PAULO,,,02127-001,-23.500763,-46.587863
AVENIDA,INDEPENDENCIA 1840,619,,,JUIZ DE FORA,,,36016-321,-21.77028,-43.351469
AVENIDA,JOSE HERCULANO 1086 LUC 4/5/6,620,,,CARAGUATATUBA,,,11666-000,-23.657354,-45.434386
RUA,TIBURCIO DE SOUZA 162 340,621,,,SAO PAULO,,,08140-000,-23.498631,-46.399871
AVENIDA,RAFAEL COMENDADOR 1324 QD71 LT1/2,622,,,LINHARES,,,29900-052,-19.401302,-40.065004
RUA,ELOI TEIXEIRA 0,623,,,QUEIMADOS,,,26383-080,-22.71559,-43.5514
AVENIDA,JOSE MARIA VIVACQUA DOS SANTOS 400 EUC 207,624,,,VITORIA,,,29090-160,-20.25024,-40.272195
ESTRADA,DO GALEAO 2420 LOJA A,625,,,RIO DE JANEIRO,,,21931-582,-22.803882,-43.204531
ESTRADA,DAS TAIPAS 4027,626,,,SAO PAULO,,,02995-145,-23.43376,-46.72047
RUA,TENENTE CLETO CAMPELO 83 E 87,627,,,GRAVATA,,,55641-000,-8.215299,-35.58324
PRACA,CONDESSA PAULO DE FRONTIN 51,628,,,RIO DE JANEIRO,,,20261-190,-22.924722,-43.209342
RUA,BARAO DO RIO BRANCO 191,629,,,APARECIDA,,,12570-000,-22.81807,-45.18126
RUA,RUI PIROZZELLI 44 COMP 50 52,632,,,SAO PAULO,,,03811-020,-23.49065,-46.48041
AVENIDA,ESPERANCA 142,633,,,GUARULHOS,,,07095-005,-23.464231,-46.531693
RUA,JOAQUIM MURTINHO 134,635,,,PARACATU,,,38600-000,-17.216313,-46.874494
RUA,DO COMERCIO 3 PRAC G VAR,636,,,IPOJUCA,,,55590-000,-8.400422,-35.065647
AVENIDA,AUTOMOVEL CLUB 48 LOJA 121,638,,,DUQUE DE CAXIAS,,,25255-030,-22.642838,-43.282733
AVENIDA,DOS NOGUEIRAS 49,640,,,RIBEIRAO DAS NEVES,,,33805-000,-19.765979,-44.088654
AVENIDA,AUGUSTO DE LIMA 1313,641,,,BELO HORIZONTE,,,30190-002,-19.922018,-43.948752
RUA,DOS PINHEIROS 1376,643,,,SAO PAULO,,,05422-002,-23.56808,-46.69106
AVENIDA,SILVA LOBO 1210,645,,,BELO HORIZONTE,,,30431-262,-19.935294,-43.97117
RUA,CORONEL JOSE DE CASTRO 713 723,646,,,CRUZEIRO,,,12701-450,-22.57619,-44.95996
RUA,PELOTAS 83 LOJA 198,648,,,SAO PAULO,,,04012-000,-23.58136,-46.64342
RUA,DUQUE DE CAXIAS 1350,649,,,PIRASSUNUNGA,,,13630-095,-21.99737,-47.42747
RUA,DUQUE DE CAXIAS 556,651,,,JOAO PESSOA,,,58010-821,-7.120678,-34.884164
AVENIDA,GUILHERME COTCHING 1812,652,,,SAO PAULO,,,02113-014,-23.54894,-46.63882
RUA,SACADURA CABRAL 122,654,,,RIO DE JANEIRO,,,20081-262,-22.897403,-43.185439
RUA,DA RELACAO 33 35,656,,,RIO DE JANEIRO,,,20231-110,-22.910597,-43.184328
ESTRADA,VELHA DE MARICA 1083 LOJA 207,657,,,SAO GONCALO,,,24756-280,-22.877495,-43.026613
AVENIDA,ROTARY 510,659,,,SAO JOAO DA BARRA,,,28200-000,-21.634886,-41.044312
RUA.DOUTOR,ADHEMAR DE BARROS 345 SALAO COM,661,,,PORTO FELIZ,,,18540-000,-23.212986,-47.523082
AVENIDA,EWERTON XAVIER 701 LT 3B QD89,663,,,NITEROI,,,24340-105,-22.944592,-43.030734
AVENIDA,SANTOS DUMONT 5080,665,,,FORTALEZA,,,60192-018,-3.740845,-38.484081
AVENIDA,BENEDITO STORANI 405 LOJA 10,667,,,VINHEDO,,,13280-000,-23.026657,-46.979742
RUA,XV DE NOVEMBRO 2423,668,,,CAMPO LARGO,,,83601-030,-25.459753,-49.527601
RUA,SENADOR VAZ DE MELO 153,669,,,VICOSA,,,36570-000,-20.754155,-42.879618
RUA,CORONEL EUGENIO MOTTA 521 LUC'S 27/2,670,,,BOITUVA,,,18550-000,-23.283365,-47.670302
RUA,13 NORTE LOTE 01 E 03 0 LOJA 54,671,,,BRASILIA,,,71909-720,-15.83685,-48.019599
RUA,ARAO LINS DE ANDRADE 572,672,,,JABOATAO DOS GUARARAPES,,,54400-200,-8.164733,-34.919435
AVENIDA,CONSELHEIRO AGUIAR 3595 LOJA,674,,,RECIFE,,,51020-021,-8.120264,-34.897204
RUA,DOS ANDRADAS 463 477 LJ 04,675,,,PINDAMONHANGABA,,,12400-010,-22.924922,-45.464312
AVENIDA,JOAO PESSOA 1189 LOJA 18,676,,,GUARATINGUETA,,,12515-010,-22.803343,-45.202347
AVENIDA,"UM 1310 LOJAS 8, 9",677,,,HORTOLANDIA,,,13185-153,-22.867634,-47.225166
RUA,SACADURA CABRAL 45 E 47,679,,,RIO DE JANEIRO,,,20081-261,-22.897387,-43.182582
RUA,CORONEL SILVINO PEREIRA 66,680,,,CORONEL FABRICIANO,,,35170-039,-19.529711,-42.624959
AVENIDA,VEREADOR TOALDO TULIO 3910 LOJA 01,682,,,CURITIBA,,,82300-332,-25.423364,-49.350814
AVENIDA,ALBINO DE ALMEIDA 239,684,,,RESENDE,,,27542-080,-22.46403,-44.448157
RUA,DOUTOR MATTOS 86,685,,,RIO BONITO,,,28800-000,-22.710291,-42.627517
AVENIDA,DOS AUTONOMISTAS 896 LOJAS 224,687,,,OSASCO,,,06020-010,-23.544057,-46.763344
RUA,LUCAS RODRIGUES 45 QD 2 LT 5,688,,,NOVA IGUACU,,,26070-434,-22.705938,-43.428731
RODOVIA,ARMANDO CALIL BULOS 6300,694,,,FLORIANOPOLIS,,,88058-001,-27.437755,-48.401238
AVENIDA,"DOM HELDER CAMARA 6001 LOJAS S, T",696,,,RIO DE JANEIRO,,,20771-002,-22.885702,-43.289432
AVENIDA,85 0 Q 221 LT23,697,,,GOIANIA,,,74160-010,-16.672514,-49.28963
AV,AYRTON SENNA 3579 PARTE/FREN,700,,,RIO DE JANEIRO,,,22775-004,-22.980925,-43.366022
RUA,DIAS DA CRUZ 481,702,,,RIO DE JANEIRO,,,20720-011,-22.904962,-43.289164
RUA,HENRIQUE SCHAUMANN 203 PARTE,801,,,SAO PAULO,,,05413-020,-23.562961,-46.678925
RUA,PEDROSO ALVARENGA 461 PARTE,803,,,SAO PAULO,,,04531-011,-23.580799,-46.674901
RUA,EMILIO MARENGO 534 PARTE,804,,,SAO PAULO,,,03336-000,-23.553385,-46.561799
AV,PAES DE BARROS 2885,806,,,SAO PAULO,,,03149-100,-23.57624645,-46.58709409
AV,GIOVANNI GRONCHI 5137 PARTE,807,,,SAO PAULO,,,05724-003,-23.62521667,-46.73427833
ALAMEDA,DOS MARACATINS 1818,809,,,SAO PAULO,,,04089-005,-23.614599,-46.66804
AV,SUMARE 1334,812,,,SAO PAULO,,,05016-110,-23.540822,-46.675938
RUA,DOMINGOS DE MORAIS 2890,814,,,SAO PAULO,,,04036-100,-23.601782,-46.636777
AV,REPUBLICA DO LIBANO  2304,816,,,SAO PAULO,,,04502-300,-23.599256,-46.659929
AV,PDE ANTONIO JOSE DOS SANTOS 851 PARTE,817,,,SAO PAULO,,,04563-013,-23.61044632,-46.68640211
AV,PORTUGAL 1617,818,,,SANTO ANDRE,,,09041-320,-23.66881588,-46.53823765
RUA,CAMPOS SALLES  2151,819,,,PIRACICABA,,,13418-310,-22.72328103,-47.63249069
AV,PAULO FACCINI 1100 PARTE,820,,,GUARULHOS,,,07111-000,-23.462175,-46.527268
AV,NOVE DE JULHO 1250,821,,,JUNDIAI,,,13209-020,-23.18492,-46.894318
AV,JULIO MESQUITA 895,822,,,CAMPINAS,,,13025-061,-22.897786,-47.056079
RUA,FRANCISCO BERLING 20,823,,,SAO JOSE DOS CAMPOS,,,12245-670,-23.19095758,-45.89020925
AV,LEAO MACHADO 100 LOJA P-36,824,,,SAO PAULO,,,05328-020,-23.547903,-46.756809
RUA,ELISA SILVEIRA 57,827,,,SAO PAULO,,,04152-000,-23.62247,-46.6289
RUA,FRANCISCO FRISCHMANN 2597 PARTE,828,,,CURITIBA,,,80320-250,-25.467616,-49.295368
RUA,BUENOS AIRES 205,830,,,CURITIBA,,,80250-070,-25.438876,-49.280165
AV,REPUBLICA DO LIBANO 2576 QDE8 LT23,832,,,GOIANIA,,,74115-030,-16.67095645,-49.27040346
RUA,AMERICO BRASILIENSE  279,833,,,SAO CAETANO DO SUL,,,09520-030,-23.616284,-46.565618
AV,VEREADOR JOAO DE LUCA 483,835,,,SAO PAULO,,,04381-000,-23.647835,-46.670483
AV,NOVA CANTAREIRA  3265,836,,,SAO PAULO,,,02341-000,-23.472281,-46.616989
AVENIDA,BRASIL 1076,838,,,BELO HORIZONTE,,,30140-001,-19.949199,-43.919605
R,VISCONDE DE PIRAJA 174 LJ A E B,839,,,RIO DE JANEIRO,,,22410-003,-22.984477,-43.200129
AV,NOSSA SENHORA DE COPACABANA  619 LJ A PARTE,842,,,RIO DE JANEIRO,,,22020-001,-22.970198,-43.185852
R,PROFESSOR MORAES 226,844,,,BELO HORIZONTE,,,30150-370,-19.935289,-43.930686
AVENIDA,T 4 466 QD124 LT7,845,,,GOIANIA,,,74230-030,-16.710834,-49.267631
AV,CONSELHEIRO CARRAO  2306,847,,,SAO PAULO,,,03402-002,-23.547875,-46.538941
AV, WASHINGTON LUIS 484,848,,,SANTOS,,,11055-000,-23.965686,-46.328813
AV,MARCONDES DE BRITO 1470,853,,,SAO PAULO,,,03509-000,-23.53224804,-46.52975657
SHC,SUL RESIDENCIAL QD 506 BLOCO A LOJA 15 0,854,,,BRASILIA,,,70350-515,-15.810392,-47.903268
RUA,BRAS LEME 2175 LJ 01,856,,,SAO PAULO,,,02022-010,-23.50339,-46.638975
RUA,MAXWELL 477 PARTE,857,,,RIO DE JANEIRO,,,20541-100,-22.922896,-43.248947
RUA,ABILIO SOARES 870,863,,,SAO PAULO,,,04005-003,-23.576411,-46.649555
AV,VEREADOR JOSE DINIZ 3670 LJ 01,864,,,SAO PAULO,,,04604-007,-23.616015,-46.673854
RUA,VOLUNTARIOS DA PATRIA 450 LOJA B,865,,,RIO DE JANEIRO,,,22270-000,-22.955948,-43.197318
R,GENERAL URQUIZA 71 LOJA A,866,,,RIO DE JANEIRO,,,22431-040,-22.984802,-43.22413
RUA,BARTOLOMEU DE GUSMAO 131,867,,,SANTOS,,,11030-500,-23.983431,-46.309506
RUA,PIO XI 801,868,,,SAO PAULO,,,05060-000,-23.53087,-46.711998
SHC/CLSW,104 BLOCO A LOJA B 104 PARTE 0,869,,,BRASILIA,,,70670-531,-15.804381,-47.93181
R,CONDE DE BONFIM 152 LOJA A,870,,,RIO DE JANEIRO,,,20520-053,-22.9247,-43.226621
RUA,ANDRE CAVALCANTI 214,871,,,BELO HORIZONTE,,,30430-110,-19.932752,-43.956319
AV,FRANCISCO PRESTES MAIA 1029,872,,,SAO BERNARDO DO CAMPO,,,09770-000,-23.71125299,-46.54414247
AV,DOM PEDRO II 933,874,,,SANTO ANDRE,,,09110-000,-23.64950231,-46.53562308
SHIS,CL QI 17 BLOCO H LOJAS 113 A 116 TERREO 0,875,,,BRASILIA,,,71645-000,-15.860638,-47.871939
AV,INDIANAPOLIS 440,877,,,SAO PAULO,,,04062-000,-23.60277,-46.655515
EST,FRANCISCO DA CRUZ NUNES 6501 LOJA 101,879,,,NITEROI,,,24350-310,-22.941501,-43.057275
AV,DAS AMERICAS 14755,880,,,RIO DE JANEIRO,,,22640-100,-23.011977,-43.45696
R,PADRE AGOSTNHO  1568 TERREO,881,,,CURITIBA,,,80710-000,-25.429579,-49.294615
AV,NOVE DE JULHO  550,883,,,SAO JOSE DOS CAMPOS,,,12243-001,-23.19687226,-45.89427644
AV,ANDROMEDA 1637,885,,,SAO JOSE DOS CAMPOS,,,12230-000,-23.23774191,-45.88501797
R,MARQUES DE ABRANTES 172 BL FTE LJA,886,,,RIO DE JANEIRO,,,22230-061,-22.939019,-43.178291
AV,PRESIDENTE ANTONIO CARLOS 8311,888,,,BELO HORIZONTE,,,31270-010,-19.8542116,-43.9615196
EST,DOS BANDEIRANTES 106,889,,,RIO DE JANEIRO,,,22730-001,-22.924134,-43.37385
AV,DOM LUIS 1400,891,,,FORTALEZA,,,60160-230,-3.736001,-38.489161
R,FRANCISCO REAL 2050,892,,,RIO DE JANEIRO,,,21810-042,-22.879627,-43.465564
AV,PARADA PINTO 1940 LOJA 2,895,,,SAO PAULO,,,02611-001,-23.471051,-46.651732
R,URUGUAI  329,897,,,RIO DE JANEIRO,,,20510-060,-22.929874,-43.242772
AV,DOM HELDER CAMARA 5332 LOJA 3905,900,,,RIO DE JANEIRO,,,20771-004,-22.887365,-43.283638
RUA,SERGIPE 160,901,,,SAO PAULO,,,01243-000,-23.548871,-46.655475
RUA,HARMONIA 373,902,,,SAO PAULO,,,05435-000,-23.554704,-46.688338
RUA,ITAPURA  721 742,904,,,SAO PAULO,,,03310-000,-23.545042,-46.566412
AV,SANTO AMARO 6440 LOJA 01,905,,,SAO PAULO,,,04702-002,-23.6358275,-46.69542042
AV,ANTONIO SALES 3031,907,,,FORTALEZA,,,60135-102,-3.747185,-38.496779
RUA,JOSE DE SOUZA CAMPOS 1066,908,,,CAMPINAS,,,13025-320,-22.896437,-47.04694
AV,ANDRADE NEVES 2457,909,,,CAMPINAS,,,13070-000,-22.888578,-47.07773
RUA,CLODOMIRO AMAZONAS 1299,911,,,SAO PAULO,,,04537-012,-23.59519,-46.67663
RUA,USHIMA KIRA 49,912,,,COTIA,,,06709-048,-23.592173,-46.835226
R,CORONEL VEIGA  711,913,,,PETROPOLIS,,,25655-156,-22.52404381,-43.19167509
AV,LUIZ DUMONT VILLARES 859 : E No 901,915,,,SAO PAULO,,,02085-100,-23.49739195,-46.61169288
AV,ALBINO JOSE BARBOSA DE OLIVEIRA 1282,916,,,CAMPINAS,,,13084-008,-22.82882291,-47.0791519
AV,EUSEBIO MATOSO 891 LOJA 03,918,,,SAO PAULO,,,05423-901,-23.57095424,-46.69118081
RUA,JOSE RAMON URTIZA S/N,920,,,SAO PAULO,,,05717-270,-23.63378791,-46.73235677
R,PROF JOSE HORACIO MEIRELLES TEIXEIRA 1080,921,,,SAO PAULO,,,05630-130,-23.61309954,-46.74163738
AV,OLEGARIO MACIEL 256 PARTE,924,,,RIO DE JANEIRO,,,22621-200,-23.013207,-43.305124
AV,DA ACLIMACAO 125,926,,,SAO PAULO,,,01531-001,-23.567844,-46.633422
AV,NAZARE 1500,927,,,SAO PAULO,,,04262-200,-23.597202,-46.609805
AVENIDA,BRASIL 4149,930,,,MARINGA,,,87013-000,-23.420915,-51.942627
RUA,ELESBAO LINHARES 300,934,,,VITORIA,,,29055-340,-20.299336,-40.297814
RUA,CARLOS MARTINS 1160,942,,,VITORIA,,,29090-060,-20.25642,-40.269813
EST,DOS ALPES  333 PARTE,955,,,BARUERI,,,06423-080,-23.534018,-46.860495
ROD,PRESIDENTE DUTRA 25600  KM 188,956,,,NOVA IGUACU,,,26276-000,-22.743563,-43.513432
RUA,HENRY FORD 643 PARTE,960,,,OSASCO,,,06210-905,-23.52642,-46.76393
ESTRADA,DA LAMA PRETA 321,961,,,RIO DE JANEIRO,,,23575-450,-22.880793,-43.664887
RODOVIA,BR-497 0 KM 1 480 A,963,,,UBERLANDIA,,,38414-583,-18.954249,-48.358365
RODOVIA,"ANHANGUERA 0 KM 37,5",964,,,CAJAMAR,,,07760-000,-23.012359,-47.022458
RUA,12 DE OUTUBRO 92,29,,,SAO PAULO,,,05073-000,-23.519013,-46.70368
AV,GOVERNADOR AMARAL PEIXOTO 277,31,,,NOVA IGUACU,,,26210-060,-22.758137,-43.452494
AVENIDA,MARGINAL 200 LOJA ANC 1,1002,,,BOTUCATU,,,18606-294,-22.915201,-48.462521
RUA,VIGARIO SILVA 37 45,1024,,,UBERABA,,,38010-130,-19.7499,-47.935643
RUA,LUCIANO DAS NEVES 2418 LUC 1008,1032,,,VILA VELHA,,,29100-200,-20.353328,-40.295832
AVENIDA,DAS AMERICAS 15500 LUC 177,1033,,,RIO DE JANEIRO,,,22790-702,-23.012835,-43.462132
"BR-386,",KM 346 2839 LUC 503,1043,,,LAJEADO,,,95900-000,-29.449712,-51.96945
RUA,GERALDO MAGELA BARBOSA 186,1044,,,VILHENA,,,76980-000,-12.739685,-60.138617
ESTRADA,CAMPINAS PIRAJA 0,1045,,,SALVADOR,,,41270-000,-12.916997,-38.465989
AVENIDA,SAO PAULO 2575 LUC 1062,1046,,,TEIXEIRA DE FREITAS,,,45990-678,-17.556851,-39.725591
AVENIDA,JUIZ MARCO TULIO ISAAC 1119 LOJA A-02,1050,,,BETIM,,,32604-245,-19.958331,-44.188026
AVENIDA,PRESIDENTE JUSCELINO KUBITSCHECK DE OLIVEIRA 5000 LOJA 1136,1052,,,SAO JOSE DO RIO PRETO,,,15093-270,-20.857716,-49.412476
PRACA,DAS NACOES UNIDAS 590,1058,,,ITAMARAJU,,,45836-000,-17.038457,-39.539214
RUA,BARAO DO RIO BRANCO 961,1063,,,CRATEUS,,,63700-000,-5.177296,-40.66779
AVENIDA,PREFEITO JOAO DE SOUSA LIMA 531 LT 4 QD 80,1064,,,ARAGUAINA,,,77807-160,-7.198478,-48.202737
RUA,POCOS DE CALDAS 69,1069,,,IPATINGA,,,35160-033,-19.477124,-42.52473
AVENIDA,BERNARDO SAYAO 534 LTS 7 E 13,1070,,,PARAISO DO TOCANTINS,,,77600-000,-10.177223,-48.883094
AVENIDA,JAIME BRASIL 21,1089,,,BOA VISTA,,,69301-350,2.816655,-60.6678
RUA,DR MANOEL OITICICA 296,1090,,,RIO LARGO,,,57100-000,-9.4781591,-35.8397378
PRACA,GETULIO VARGAS 286,1092,,,ALFENAS,,,37130-000,-21.428434,-45.94726
AVENIDA,BARAO DE RIO BRANCO 375,1093,,,SANTAREM,,,68005-392,-2.420807,-54.714534
AVENIDA,BARAO DO RIO BRANCO 39,1094,,,CONCEICAO DO COITE,,,48730-000,-11.563295,-39.282831
RUA,GIRUA S/N LT 07 e 12,1095,,,LUCAS DO RIO VERDE,,,78455-000,-13.072541,-55.911999
RUA,BELO HORIZONTE 1031,1098,,,CAMBE,,,86181-020,-23.276975,-51.279898
RUA,SAO JOSE 355,1100,,,GUAIBA,,,92500-000,-30.108552,-51.316343
RUA,J.B. DA FONSECA 0,1103,,,CRUZ DAS ALMAS,,,44380-000,-12.672099,-39.102193
AVENIDA,DR STAVEAUX 176 C 1/2/3/4F,1105,,,SAO ROQUE,,,18130-500,-23.529644,-47.133918
AVENIDA,DENISE CRISTINA ROCHA 807 LJ ANC 4,1106,,,RIBEIRAO DAS NEVES,,,33900-375,-19.805632,-44.029151
RUA,ONZE DE AGOSTO 340,1110,,,TATUI,,,18270-001,-23.348053,-47.848476
RODOVIA,BR 262 6555 KM 05,1112,,,CARIACICA,,,29145-910,-20.342613,-40.400548
AVENIDA,FERNANDO GUILHON 0 QD C LT C,1113,,,SANTAREM,,,68038-305,-2.508096,-54.959118
RUA,DESEMBARGADOR LAURO NOGUEIRA 1355 PISO L1,1114,,,FORTALEZA,,,60175-055,-3.743743,-38.467144
AVENIDA,FLORESTAL 555 L52 ANC IV,1115,,,ARACRUZ,,,29192-154,-19.822119,-40.284609
AVENIDA,PREFEITO JONAS BANKS LEITE 610 TERREO,1116,,,REGISTRO,,,11900-000,-24.491723,-47.842714
AVENIDA,HILTON SOUTO MAIOR 0 QD002 L347,1117,,,JOAO PESSOA,,,58055-018,-7.162323,-34.830614
RUA,QUINZE DE NOVEMBRO 744,1118,,,LENCOIS PAULISTA,,,18680-030,-22.596965,-48.799482
ESTRADA,DE RIBAMAR 1000 LOJA ANC 6,1120,,,SAO JOSE DE RIBAMAR,,,65110-000,-2.55205,-44.191845
AVENIDA,GOVERNADOR JOSE MALCHER 3023,1122,,,BELEM,,,66090-100,-1.448287,-48.466874
RUA,CARMELITA REBOUCAS 0,1123,,,EUSEBIO,,,61460-000,-3.872799,-38.470807
AVENIDA,AMARILIO THIAGO DOS SANTOS 70,1124,,,LAURO DE FREITAS,,,42700-000,-12.900337,-38.318409
AVENIDA,MARECHAL CASTELO BRANCO 911 SUC 304,1125,,,TERESINA,,,64000-810,-5.076612,-42.802532
AVENIDA,CORONEL ESTEVAM 0,1126,,,NATAL,,,59031-000,-5.795726,-35.216118
RUA,LEOPOLDO MACHADO 2334 1127,1127,,,MACAPA,,,68901-971,0.0344,-51.062841
RUA,JULIO DE CASTILHOS 89,1129,,,CACHOEIRA DO SUL,,,96501-001,-30.037845,-52.900489
AVENIDA,"SAO VICENTE DE PAULA 101 LUC 12, 13",1130,,,CAUCAIA,,,61655-000,-3.773562,-38.628062
RUA,GENERAL OSORIO 0 S01 Q20 LT,1132,,,CACOAL,,,76963-890,-11.442001,-61.445605
RUA,DA PRAIA 131,1133,,,RECIFE,,,50020-550,-8.067437,-34.876908
RUA,SIQUEIRA CAMPOS 126 GALPAO,1134,,,SANTA RITA,,,58300-180,-7.121655,-34.980126
RUA,O 1044 LUC 99,1135,,,RIO VERDE,,,75907-681,-17.816277,-50.939291
RODOVIA,BR 282 0 KM 216,1136,,,LAGES,,,88521-130,-27.792986,-50.283381
AVENIDA,"VILLE ROY 1604 LJ 72,73,7",1137,,,BOA VISTA,,,69307-725,2.851477,-60.646152
RODOVIA,LUCIANO ARNALDO COVOLAN 1055 KM 2,1138,,,PENAPOLIS,,,16300-000,-21.411361,-50.099166
AVENIDA,ARIOSTO DA RIVA 2609 L AC 15 3,1139,,,ALTA FLORESTA,,,78580-000,-9.889589,-56.087503
PRACA,CESARIO ALVIM 282,1140,,,CARATINGA,,,35300-036,-19.790513,-42.139625
AVENIDA,JAMARI 2761,1142,,,ARIQUEMES,,,76870-012,-9.923151,-63.024953
RUA,AMARAL FRANCO 77,1144,,,MANHUACU,,,36900-000,-20.25424,-42.032442
RUA,CORONEL PENA DE MORAES 333,1145,,,FARROUPILHA,,,95180-000,-29.228321,-51.348569
RUA,LIDIA ALVES ARAGAO 40 QDA LT6A,1146,,,SANTA CRUZ DO CAPIBARIBE,,,55190-000,-7.957128,-36.198758
RUA,GUIA LOPES 271,1147,,,PONTA PORA,,,79904-686,-22.541473,-55.728286
AVENIDA,LOMANTO JUNIOR 60,1148,,,JACOBINA,,,44700-000,-11.184842,-40.511708
AVENIDA,DOUTOR MIGUEL DE SANTA BRIGIDA 0 LT4 QD106,1149,,,SALINOPOLIS,,,68721-000,-0.623678,-47.34568
RUA,CEL ANTONIO BOTELHO DE SOUSA 254 LUC 100,1150,,,MARANGUAPE,,,61940-005,-3.897709,-38.684292
AVENIDA,SAO PAULO 2114,1151,,,MONGAGUA,,,11730-000,-24.096836,-46.624414
RUA,SETE DE SETEMBRO 965,1152,,,TOLEDO,,,85901-180,-24.733127,-53.735467
AVENIDA,NOVE DE JULHO 3333 LUC 129,1153,,,JUNDIAI,,,13208-056,-23.199605,-46.889871
AVENIDA,ARQUITETO JOSE HENRIQUE BENTO RODRIGUES 3760 EC 103-G,1154,,,MANAUS,,,69093-149,-3.000957,-60.001165
RUA,CORONEL JOSE VICENTE 2 E 67,1155,,,SOUSA,,,58800-005,-6.760984,-38.2304
RUA,DELAMERA 780,1156,,,CORUMBA,,,79301-020,-18.998253,-57.651249
AVE,NOEL NUTELS 1762 LJ 3105 P1,1157,,,MANAUS,,,69095-000,-3.030984,-59.984669
AVENIDA,ANASTACIO BRAGA 01100,1158,,,ITAPIPOCA,,,62500-000,-3.495357,-39.595202
AVENIDA,OLIVEIRA BRITO 471 QD82 LT10,1159,,,RIBEIRA DO POMBAL,,,48400-000,-10.836439,-38.542932
RUA,JOAO ALENCAR 2181,1161,,,BOA VISTA,,,69310-065,2.85041,-60.706952
AVENIDA,DOUTOR AFONSO VERGUEIRO 823 ESP CM 120,1163,,,SOROCABA,,,18035-370,-23.496704,-47.458819
ROD.,MARECHAL CANDIDO RONDON KM 534-5 0 EUC 240,1165,,,ARACATUBA,,,16026-005,-21.211751,-50.468941
RUA,DESEMBARGADOR HUGO SIMAS 240,1167,,,PARANAGUA,,,83203-250,-25.51927,-48.507941
RUA,TREZE DE JUNHO 474,1168,,,CUIABA,,,78020-270,-15.601382,-56.098068
RUA,SETE DE SETEMBRO 220,1169,,,LINS,,,16400-025,-21.673043,-49.750932
RUA,CORONEL TEOFILO LEME 1094,1170,,,BRAGANCA PAULISTA,,,12900-002,-22.953887,-46.540793
PRACA,ANCHIETA 159,1171,,,ITAPEVA,,,18400-450,-23.982228,-48.87631
AVE,JERONIMO DE ALBUQUERQUE MARANHAO 61 LOJA 06,1172,,,SAO LUIS,,,65071-750,-2.535095,-44.226206
RUA,MAJOR  CLAUDIANO 1684,1173,,,FRANCA,,,14400-690,-20.543834,-47.402053
RUA,DOUTOR MARIO MEIRA 147,1174,,,BRUMADO,,,46100-000,-14.206224,-41.665462
AV,ATAULFO DE PAIVA 1251,1175,,,RIO DE JANEIRO,,,22440-030,-22.986028,-43.227668
AVENIDA,ARAGUAIA 2740,1176,,,REDENCAO,,,68552-155,-8.040503,-50.042719
AVENIDA,AMAZONAS 415,1178,,,BETIM,,,32600-065,-19.919347,-43.93895
RUA,SAO JOSE 384,1182,,,UBA,,,36500-000,-21.118516,-42.936582
RUA,JOSE BONIFACIO DE SOUZA 270 ANC 05 SH,1183,,,PALHOCA,,,88132-140,-27.642071,-48.67156
AVENIDA,CARLOS BOTELHO 400 410,1184,,,NOVA ODESSA,,,13460-000,-22.77869,-47.291782
RUA,ZILDA 606 612,1185,,,SAO PAULO,,,02545-000,-23.494404,-46.661613
AV,PRESIDENTE VARGAS 1979,1186,,,ESTEIO,,,93260-004,-29.848273,-51.175491
RUA,JEAN ANASTACE KOVELIS 400 LUC 115,1187,,,CAJAMAR,,,07791-803,-23.40835,-46.864553
AVENIDA,GOIAS 734,1188,,,CIANORTE,,,87200-268,-23.657886,-52.604515
AVENIDA,ANTONIO DE BARROS MUNIZ 0,1189,,,ARARIPINA,,,56280-000,-7.577904,-40.498262
RODOVIA,"D PEDRO I KM 131,5 S/N LJ USO COM",531,,,CAMPINAS,,,13091-901,-22.8875547,-47.06686403
BLV,VINTE E OITO DE SETEMBRO 86 LJ E TERRE,532,,,RIO DE JANEIRO,,,20551-031,-22.914084,-43.238204
RUA,TENENTE AVELAR PIRES DE AZEVEDO 81 LJS 12/154,533,,,OSASCO,,,06016-060,-23.52889917,-46.77858946
AV,DAS AMERICAS 7777 LJ 105,534,,,RIO DE JANEIRO,,,22793-081,-23.00056,-43.386275
RUA,BORBA GATO 59 LJ 316,535,,,SAO PAULO,,,04747-030,-23.65477,-46.701566
RUA,DA PASSAGEM 113 115,536,,,RIO DE JANEIRO,,,22290-030,-22.953787,-43.181376
EST,UNIAO E INDUSTRIA 11000 LJ 69/70,537,,,PETROPOLIS,,,25750-226,-22.50646319,-43.2320774
AVENIDA,MARECHAL FLORIANO PEIXOTO 44 SUC 15 NIV,538,,,SANTOS,,,11060-910,-23.96700508,-46.33670982
AVENIDA,EMANCIPACAO 47,539,,,ITAQUAQUECETUBA,,,08570-002,-23.47649,-46.35355
RUA,ATAULFO DE PAIVA 204 LOJAS A/B,540,,,RIO DE JANEIRO,,,22440-033,-22.98365,-43.217977
AVENIDA,SAO JOAO 2200 EUC N NT,541,,,SAO JOSE DOS CAMPOS,,,12242-000,-23.20866816,-45.90874609
RUA,TEODORO SAMPAIO 2799 2809 T,543,,,SAO PAULO,,,05405-250,-23.56562,-46.691701
R,DR NELSON DE SA EARP 88 LJ 18/19,544,,,PETROPOLIS,,,25680-195,-22.511591,-43.180211
AVENIDA,PEIXOTO GOMIDE 44,547,,,ITAPETININGA,,,18200-160,-23.58858017,-48.04767609
AVENIDA,NOVE DE JULHO 564,548,,,POA,,,08550-100,-23.520722,-46.343118
RUA,FRANCISCO GLICERIO 1510,551,,,CAMPINAS,,,13012-000,-22.901667,-47.061345
RUA,DA MOOCA 2413 2417/2421,552,,,SAO PAULO,,,03103-003,-23.555369,-46.601629
AVENIDA,DAS AMERICAS 13651 LJS A/B/C,553,,,RIO DE JANEIRO,,,22790-701,-23.010067,-43.449117
AVENIDA,BRASIL 1290,555,,,FERRAZ DE VASCONCELOS,,,08500-020,-23.540559,-46.366541
AVENIDA,PRESIDENTE COSTA E SILVA 527 QD T,557,,,PRAIA GRANDE,,,11701-000,-24.008757,-46.413865
PRACA,CONDE FRONTIN 28  TER / SLJ,558,,,JACAREI,,,12327-330,-23.305737,-45.96707
RUA,RAUL POMPEIA 94 TER/SOB.LJ,560,,,RIO DE JANEIRO,,,22080-002,-22.984694,-43.191473
AVENIDA,CORONEL FERNANDO PRESTES 214 PAV 1,561,,,PINDAMONHANGABA,,,12400-240,-22.925551,-45.460804
PRACA,CONS RODRIGUES ALVES 254,563,,,GUARATINGUETA,,,12500-020,-22.814081,-45.193912
AV,MONTEIRO LOBATO 47 51 E 55,564,,,GUARULHOS,,,07112-000,-23.469633,-46.525717
RUA,GONCALVES CRESPO 78 105/106/10,566,,,SAO PAULO,,,03066-030,-23.541888,-46.575158
AV,TRINTA E UM DE MARCO 747,569,,,VOTORANTIM,,,18110-005,-23.542234,-47.44773
RUA,FELIPE CARDOSO 540 LJS 09/10,570,,,RIO DE JANEIRO,,,23510-001,-22.920556,-43.680995
AV,JUVENAL ALVIM 131 C,572,,,ATIBAIA,,,12940-060,-23.116374,-46.558353
RUA,GENERAL OSORIO 753,574,,,SAO CARLOS,,,13560-640,-22.022271,-47.882297
PRACA,CARLOS LIRA 54 58,1001,,,TIMBAUBA,,,55870-000,-7.51338,-35.31668
QNM,34 AREA ESPECIAL 01 PISO L1 0 LOJA 113,1003,,,BRASILIA,,,72145-450,-15.811207,-48.092857
AVENIDA,BEBERIBE 4645 CASA C,1004,,,RECIFE,,,52130-325,-8.037063,-34.891225
AVENIDA,ABILIO MACHADO 1664,1006,,,BELO HORIZONTE,,,30820-622,-19.90332,-44.0035
AVENIDA,SAO SEBASTIAO 3429 LOJA 73,1007,,,PARNAIBA,,,64204-035,-2.910768,-41.733102
AVENIDA,HERMES FONTES 673 A,1008,,,ARACAJU,,,49015-350,-10.924445,-37.057264
AVENIDA,LIBERDADE 0 TERRENO 3,1009,,,BAYEUX,,,58306-000,-7.124639,-34.923752
AVENIDA,PEDRO I 7181 LOJA 21,1010,,,TAUBATE,,,12091-000,-23.0318,-45.54889
AVENIDA,DOM SEVERINO 1599 TERREO,1011,,,TERESINA,,,64049-370,-5.070143,-42.782324
RUA,RIBEIRO DE ALMEIDA 80,1012,,,MARICA,,,24900-885,-22.918665,-42.817696
RUA,SAO JOAO CLIMACO 685 687,1013,,,SAO PAULO,,,04255-000,-23.62334,-46.59066
RUA,FRANCISCO FRANCO DE GODOY BUENO 801 GLEBAS A6,1014,,,MOGI GUACU,,,13844-210,-22.3674,-46.94858
RODOVIA,DO SOL 5000 LOJA 1058,1015,,,VILA VELHA,,,29103-900,-20.393915,-40.317798
RODOVIA,JUSCELINO KUBITSCHEK 100 LJ ANC 140,1017,,,MACAPA,,,68903-196,-0.04313,-51.105955
AVENIDA,PREFEITO JACQUES NUNES 266 C,1019,,,TIANGUA,,,62320-000,-3.727258,-40.991673
RUA,LAURINDO ADAMO 40,1020,,,SAO BERNARDO DO CAMPO,,,09624-120,-23.65442,-46.57193
PRACA,DOUTOR JOSE GONCALVES 260,1022,,,SENHOR DO BONFIM,,,48970-000,-10.460572,-40.19867
QUA,15 0 FOLHA 30,1023,,,MARABA,,,68507-445,-5.353324,-49.079764
AVENIDA,GUARARAPES 2040,1026,,,PETROLINA,,,56302-000,-9.399624,-40.496498
RODOVIA,BR 381 FERNAO DIAS 0 KM 492 601,1028,,,BETIM,,,32655-505,-19.962055,-44.162595
AVENIDA,ALEXANDRE DE GUSMAO 212 LUC 329,1029,,,SANTO ANDRE,,,09111-310,-23.662941,-46.507169
AVENIDA,LAURO DE FREITAS 336,1031,,,VITORIA DA CONQUISTA,,,45000-230,-14.855516,-40.841357
AVENIDA,ANTONIO MAIA 1374,1035,,,MARABA,,,68500-005,-5.349681,-49.133899
AVENIDA,GETULIO VARGAS 440,1037,,,IMPERATRIZ,,,65901-450,-5.531821,-47.485596
RUA,DO COMERCIO 291,1039,,,SANTA INES,,,65300-000,-3.666906,-45.382444
RODOVIA,DEPUTADO LAERCIO CORTE (SP 147) 4500 EUC A04,1040,,,LIMEIRA,,,13482-890,-22.565517,-47.43292
RUA,SILVEIRA MARTINS 208 LOJA 03,1042,,,SALVADOR,,,41150-000,-12.964768,-38.443104
AVENIDA,LUIZ EDUARDO TOLEDO PRADO 900 LOJA 2071,1051,,,RIBEIRAO PRETO,,,14027-250,-21.225209,-47.833722
AVENIDA,SEVERINO BALLESTEROS RODRIGUES 850 LOJA 2047,1053,,,CONTAGEM,,,32110-005,-19.8746168,-44.0270864
RUA,AMANDO DE BARROS 834,1056,,,BOTUCATU,,,18600-050,-22.888462,-48.44076
RUA,ATANAZIO SOARES 3380 1018/1019,1059,,,SOROCABA,,,18074-385,-23.455835,-47.482493
AVENIDA,QUINZE DE NOVEMBRO 89 1015,1060,,,ITAPECERICA DA SERRA,,,06850-100,-23.714364,-46.850436
AVENIDA,CORONEL FERNANDO FERREIRA LEITE 1540,1061,,,RIBEIRAO PRETO,,,14026-020,-21.21281,-47.814325
AVENIDA,MARECHAL FONTENELLE 3545 LOJA 160,1062,,,RIO DE JANEIRO,,,21740-001,-22.885882,-43.402525
RUA,ARY PAES BARRETO 1577,1065,,,VARZEA GRANDE,,,78118-090,-15.644297,-56.105486
RUA,CAPITAO SALOMAO 150,1066,,,ESTANCIA,,,49200-000,-11.271357,-37.438448
RUA,VISCONDE DE PORTO SEGURO 137 SETOR CENT,1067,,,FORMOSA,,,73801-010,-15.545593,-47.337597
AVENIDA,DOUTOR LUIZ MAGALHAES 955,1071,,,ITABAIANA,,,49500-000,-10.698742,-37.42854
AVE,ELDES SCHERRER SOUZA 2162 SUC 203 H/,1072,,,SERRA,,,29167-080,-20.193522,-40.268374
AVN,4 PAA 10292/PAL 38883 0 LT 1 QD 4,1073,,,RIO DE JANEIRO,,,22750-000,-22.972816,-43.375838
AVENIDA,SAQUAREMA 5345,1074,,,SAQUAREMA,,,28993-000,-22.894847,-42.470603
RUA,SALVINO PASCOAL PATROCINIO 21,1075,,,ITABIRA,,,35900-243,-19.626702,-43.226784
AVENIDA,COMENDADOR GUSTAVO PAIVA 5945 LOJAS 1004,1076,,,MACEIO,,,57038-000,-9.626698,-35.697371
AVENIDA,MONSENHOR ANGELO SAMPAIO 100 LUC 106,1077,,,PETROLINA,,,56304-920,-9.395771,-40.49064
AVENIDA,DEDE BRASIL 4820 LOJA C,1078,,,FORTALEZA,,,60714-242,-3.795548,-38.532586
QI,01 LOTE 220 SETOR LESTE INDUSTRIAL 0,1080,,,BRASILIA,,,72445-010,-15.805514,-48.073522
RUA,DOUTOR OSCAR GUIMARAES 41,1081,,,TRES LAGOAS,,,79600-021,-20.789666,-51.711282
AVENIDA,JULIO DE CASTILHO 1458,1083,,,CAMPO GRANDE,,,79112-000,-20.455624,-54.64289
RUA,15 C 0 QD 102,1085,,,APARECIDA DE GOIANIA,,,74930-280,-16.768341,-49.343103
AV,107 NORTE AVENIDA JUSCELINO KUBITSCHEK 0 LUC 04,1087,,,PALMAS,,,77001-080,-10.169664,-48.333967
AVE,COSME FERREIRA 4605 LOJA 17A,1088,,,MANAUS,,,69085-015,-3.075831,-59.9569
RUA,SAO MIGUEL 82,1097,,,RECIFE,,,50770-720,-8.080153,-34.907339
AVENIDA,HORACIO KLABIN 6 QD 12,1102,,,TELEMACO BORBA,,,84261-000,-24.3244,-50.621672
AVENIDA,KENNEDY 700 ESP CM 133,1104,,,SAO BERNARDO DO CAMPO,,,09726-901,-23.683033,-46.55786
RUA,SAO BENEDITO 53,322,,,CARAGUATATUBA,,,11660-100,-23.620487,-45.412744
ESTRADA,DO GABINAL 313 GAL B LOJA,1108,,,RIO DE JANEIRO,,,22760-151,-22.942346,-43.345198
AVENIDA,JOAO PESSOA 279 AV SAO MAR,1111,,,SAO LUIS,,,65040-000,-2.543851,-44.272966
AVENIDA,CAIOABA 316,1128,,,MAGE,,,25931-742,-22.614736,-43.179861
CNB,12 LOTE 10 LOJA 01 0,1160,,,BRASILIA,,,72115-125,-15.821834,-48.061086
RUA,BUENOS AIRES 289 E 291 TERR,2,,,RIO DE JANEIRO,,,20061-003,-22.905459,-43.185371
RUA,DO OUVIDOR 175 A 181 LJE,5,,,RIO DE JANEIRO,,,20040-030,-22.905258,-43.180215
AVENIDA,BENJAMIM PINTO DIAS 1130 LOJA 13,7,,,BELFORD ROXO,,,26130-000,-22.769742,-43.396459
RUA,13 DE MAIO 573,9,,,CAMPINAS,,,13010-071,-22.95480959,-47.19024013
RUA,LAURO MULLER 116 LJ 401 PTE,10,,,RIO DE JANEIRO,,,22290-000,-22.957202,-43.177281
RUA,DA MATRIZ 355 LOJA,11,,,SAO JOAO DE MERITI,,,25520-640,-22.800415,-43.372264
EST,DO PORTELA 70  A 76 SSL,12,,,RIO DE JANEIRO,,,21351-050,-22.872775,-43.33847
RUA,HALFELD 668,14,,,JUIZ DE FORA,,,36010-000,-21.7605853,-43.3505485
RUA,EBANO PEREIRA 67,15,,,CURITIBA,,,80410-240,-25.431464,-49.273856
RUA,BATISTA DE CARVALHO 3 55,16,,,BAURU,,,17010-001,-22.32191198,-49.06724066
PRC,BRASIL 171,17,,,VOLTA REDONDA,,,27260-170,-22.517412,-44.104772
RUA,DO IMPERADOR 428,18,,,PETROPOLIS,,,25620-000,-22.50914,-43.173955
RUA,CONDE DE BONFIM 352,19,,,RIO DE JANEIRO,,,20520-053,-22.92431998,-43.23321779
AV,N S DE COPACABANA 620 A 622 LJS,20,,,RIO DE JANEIRO,,,22050-001,-22.969963,-43.185679
RUA,GENERAL GLICERIO 2888 R SIQ.CAMP,21,,,SAO JOSE DO RIO PRETO,,,15015-400,-20.8201058,-49.39140975
RUA,VISCONDE DE PIRAJA 526 532 532 A,22,,,RIO DE JANEIRO,,,22410-002,-22.98386,-43.211055
RUA,SAO PAULO 504 NA 514/516,23,,,BELO HORIZONTE,,,30170-130,-19.917966,-43.939932
RUA,GENERAL OSORIO 470,24,,,RIBEIRAO PRETO,,,14010-000,-21.17644836,-47.81098036
RUA,DIAS DA CRUZ 255 LOJA 228,25,,,RIO DE JANEIRO,,,20720-010,-22.903401,-43.283471
PRACA,LEONOR KAUPA 10.0/1 D 2P1,27,,,SAO PAULO,,,04151-100,-23.619579,-46.627558
AV,PARANA 196,28,,,LONDRINA,,,86020-360,-23.31096907,-51.16113735
RUA,RUI BARBOSA 38,30,,,VALENCA,,,45400-000,-13.3696552,-39.0631408
RUA,CORONEL AGOSTINHO 112 LOJA A,32,,,RIO DE JANEIRO,,,23050-360,-22.90461642,-43.55954031
RUA,MARECHAL RONDON 1336,36,,,CAMPO GRANDE,,,79002-205,-20.4602333,-54.61913241
RUA,SETE DE SETEMBRO 267,37,,,RECIFE,,,50050-030,-8.060366,-34.883353
CSA,1 LOTES 2/ 3/ 4/ 16 E 17 0,39,,,BRASILIA,,,72015-015,-15.833168,-48.05215
AV,BRASIL 3171,41,,,MARINGA,,,87013-000,-23.421122,-51.932734
RUA,DOS ANDRADAS 1305,42,,,PORTO ALEGRE,,,90020-009,-30.0298472,-51.22863018
AV,ANTONIO CARLOS MAGALHAES 148 LJ 01 QD D,44,,,SALVADOR,,,41828-900,-12.96934,-38.48009
RUA,DAS LARANJEIRAS 49,46,,,RIO DE JANEIRO,,,22240-000,-22.931982,-43.181067
AVE,PRESIDENTE VARGAS 940,48,,,BELEM,,,66010-000,-1.453769346,-48.49326728
AV,DQ DE CAXIAS 1792,50,,,MACEIO,,,57036-540,-9.670403,-35.726253
RUA,PORTAO DA PIEDADE 155 LJ G 2,52,,,SALVADOR,,,40070-000,-12.9835,-38.51477
ESTR,MIRANDELA 290 A 318,57,,,NILOPOLIS,,,26500-000,-22.809355,-43.418337
RUA,HENRIQUE TERRA 1700 LOJA ANC 5,58,,,CABO FRIO,,,28911-320,-22.87576,-42.036386
RUA,JOAO PESSOA 331,59,,,ARACAJU,,,49010-130,-10.909805,-37.049226
AVENIDA,RUI BARBOSA 782 792,60,,,ASSIS,,,19814-000,-22.661522,-50.413987
RUA,GRANDE S/N,61,,,SAO LUIS,,,65000-000,-2.520311191,-44.26915558
RUA,JUNQUEIRA AIRES 8 SHOPPING P,63,,,SALVADOR,,,40070-310,-12.983865,-38.513424
AVENIDA,RIO BRANCO 503,64,,,NATAL,,,59025-001,-5.785414,-35.206566
RUA,MARECHAL DEODORO 1489,65,,,SAO BERNARDO DO CAMPO,,,09710-012,-23.7118541,-46.55048812
RUA,FELIPE SCHMIDT 446,66,,,FLORIANOPOLIS,,,88010-001,-27.593831,-48.556332
AV,DAS AMERICAS 4666 LOJA C1,67,,,RIO DE JANEIRO,,,22631-004,-22.999595,-43.355527
RUA,FRANCISCO DE ANDRADE 264,68,,,LAVRAS,,,37200-000,-21.247817,-45.002862
AV,NILO PECANHA 145,69,,,DUQUE DE CAXIAS,,,25010-140,-22.786825,-43.313106
RODOVIA,"BR 101 0 KM 210, LO",70,,,SAO JOSE,,,88106-101,-27.613638,-48.643538
AV,CANDIDO ABREU 127 SS 001,71,,,CURITIBA,,,80530-000,-25.423062,-49.27
RUA,TEN AVELAR P AZEVED0 140,72,,,OSASCO,,,06016-060,-23.52937671,-46.77885177
RUA,OLIMPIADAS 360 LUC N(o) 222,73,,,SAO PAULO,,,04551-000,-23.59584,-46.68691
RUA,AFONSO PENA 481,74,,,CODO,,,65400-000,-4.45488,-43.883645
PRACA,SAMUEL SABATINI 200 LOJA 1,75,,,SAO BERNARDO DO CAMPO,,,09750-902,-23.69745793,-46.55094951
AV,GEREMARIO DANTAS 404 LOJA 135,77,,,RIO DE JANEIRO,,,22740-010,-22.924731,-43.36079
AVENIDA,RUI BARBOSA 737,79,,,PATROCINIO,,,38740-000,-18.937312,-46.994685
PRACA,GENERAL OSORIO 16 ANT 4 E 4A,81,,,ANGRA DOS REIS,,,23900-600,-23.0068568,-44.3154442
AVENIDA,ALIOMAR BALEEIRO 578 LJS 2 E 3,83,,,SALVADOR,,,41500-660,-12.91544,-38.44436
AVENIDA,INTERLAGOS 2255,85,,,SAO PAULO,,,04661-200,-23.675257,-46.678707
RUA,QUINZE DE NOVEMBRO 8 UNID 317,87,,,NITEROI,,,24020-120,-22.896055,-43.123362
AVENIDA,CARLOS KUNTZ BUSCH 800 EUC N.(o) L6,89,,,LIMEIRA,,,13485-905,-22.56454,-47.40041
AVENIDA,AFONSO PENA 739,91,,,UBERLANDIA,,,38400-130,-18.917345,-48.277144
AV,GUSTAVO PAIVA 2990 LJ ANC D,92,,,MACEIO,,,57036-540,-9.64798,-35.716426
PCA,OSVALDO CRUZ 2698 LJ G1/1E2,94,,,CURITIBA,,,80250-230,-25.459086,-49.26625089
AVN,CASIMIRO DE ABREU 4340 LOTE 21A,96,,,RIO DAS OSTRAS,,,28890-000,-22.520966,-41.93459
AVENIDA,JOHN BOYD DUNLOP 3900 ESP COML,98,,,CAMPINAS,,,13060-803,-22.921876,-47.127255
AVENIDA,AYRTON SENNA 3000 LJ 1091,100,,,RIO DE JANEIRO,,,22775-001,-22.982686,-43.365351
TRAV,PADRE EUTIQUIO 1078 LJ ANC C,102,,,BELEM,,,66023-710,-1.456851,-48.495648
AV,AMERICO BUAIZ 200 LOJA A 14,103,,,VITORIA,,,29050-420,-20.312181,-40.289175
RUA,BATISTA DE OLIVEIRA 381,104,,,JUIZ DE FORA,,,36013-300,-21.759094,-43.347364
RUA,GETULIO VARGAS 909 L22,105,,,PARANAVAI,,,87702-000,-23.076444,-52.454259
AV,SANTOS DUMONT 03131 LOJA 1,106,,,FORTALEZA,,,60000-000,-3.73739043,-38.49431445
AV,BEZERRA DE MENEZES 2450 LOJA 266,107,,,FORTALEZA,,,60325-002,-3.736025,-38.566778
AVENIDA,PRESIDENTE KENNEDY 1961,108,,,DUQUE DE CAXIAS,,,25020-002,-22.79834,-43.30506
RUA,BOCAIUVA 2468 LJ 227A291,109,,,FLORIANOPOLIS,,,88000-000,-27.584365,-48.545371
RUA,DOUTOR JOAO RIBEIRO 304 A I,110,,,SAO PAULO,,,03634-000,-23.52512029,-46.5482101
AVENIDA,OCTAVIO MANGABEIRA 810 ED COSTA,111,,,SALVADOR,,,41830-050,-13.009043,-38.462289
AVENIDA,CORONEL BENTO DE GODOY 0 QD26 LT09,112,,,CALDAS NOVAS,,,75690-000,-17.73833,-48.620914
RUA,PROFESSOR JORNALISTA AMARO FIGUEIREDO FALCAO 520 ANT S JOSE,113,,,CUIABA,,,78055-150,-15.558997,-56.05228
AVENIDA,JOSE FONSECA E SILVA 1930 LJ 01 E 02,114,,,UBERLANDIA,,,38414-073,-18.91731,-48.329451
ROD,CELSO GARCIA CID S/N KM 377,115,,,LONDRINA,,,86000-000,-23.36117925,-51.15065737
VIA,EXPRESSA PAUL FRITZ KUEHNRICH 1600 ANC 03,116,,,BLUMENAU,,,89052-381,-26.891073,-49.070771
AV,DOM HELDER CAMARA 5332 LJ 2301,119,,,RIO DE JANEIRO,,,20771-004,-22.887321,-43.283646
R,BARAO DE SAO FRANCISCO 236 LJ A 1 E 2,121,,,RIO DE JANEIRO,,,20560-030,-22.92025028,-43.25063122
AVENIDA,GOIAS 1698,122,,,GURUPI,,,77410-010,-11.744815,-49.08256
ALAMEDA,SAO BOAVENTURA 896 A,124,,,NITEROI,,,24120-191,-22.88135,-43.08767
RUA,PRESIDENTE OLEGARIO MACIEL 567,126,,,ARAXA,,,38183-186,-19.594112,-46.936402
AVENIDA,ANTARTICA 408,127,,,SAO PAULO,,,05003-020,-23.5276331,-46.67432838
AVENIDA,CONDESSA DE VIMEIROS 307 323,129,,,ITANHAEM,,,11740-000,-24.18344,-46.78937
AV,GOV ROBERTO SILVEIRA 540 1 PISO,131,,,NOVA IGUACU,,,26285-060,-22.74314985,-43.45689406
AVENIDA,VER NARC Y GUIMARAES 1001,132,,,MOGI DAS CRUZES,,,08780-000,-23.51693901,-46.1757162
RUA,MARECHAL DEODORO 300,134,,,CACERES,,,78200-000,-16.066733,-57.687483
PRAIA,DE BOTAFOGO 400 SUBSOLO,135,,,RIO DE JANEIRO,,,22250-040,-22.947447,-43.182526
SCN,S/N QD 05 LT A LOJA 200 N 1 SUBSOLO 0,137,,,BRASILIA,,,71710-500,-15.786689,-47.888709
AV,CRISTIANO MACHADO 4000 LJ B,138,,,BELO HORIZONTE,,,31910-810,-19.875931,-43.928017
AVENIDA,PARANA 3693,140,,,UMUARAMA,,,87501-030,-23.762864,-53.315016
AVENIDA,REPUBLICA DO LIBANO 251,141,,,RECIFE,,,51110-900,-8.085905,-34.890701
AVENIDA,PRESIDENTE VARGAS 341 01,143,,,MACAPA,,,68900-070,0.039272,-51.071162
RUA,PERNAMBUCO 111,144,,,LUIS EDUARDO MAGALHAES,,,47850-000,-12.08966,-45.796331
RUA,DO PASSEIO 42 56 SSL/TER,145,,,RIO DE JANEIRO,,,20021-290,-22.912495,-43.176668
SAISO,A 1 N 6580 LOJAS 214 E 215 0,146,,,BRASILIA,,,71000-000,-15.781749,-47.914925
AVENIDA,JOAO PALACIOS 300 SUC 110A,147,,,SERRA,,,29160-925,-20.29472,-40.293
AV,WASHINGTON SOARES 85 LJ 120/121,148,,,FORTALEZA,,,60811-340,-3.756968,-38.490625
RUA,CEL XAVIER TOLEDO 23 LOJAS,149,,,SAO PAULO,,,01048-100,-23.54602019,-46.63882434
AV,PRESIDENTE CARLOS LUZ 3001 PISO 2 NL5,152,,,BELO HORIZONTE,,,31250-010,-19.88982983,-43.96700468
RUA,SARMENTO NOBERTO MARQUES 0,153,,,PARNAMIRIM,,,59140-230,-5.917536,-35.262708
AV,PRAIA DE BELAS 1181 ANC 0002,154,,,PORTO ALEGRE,,,90110-001,-30.049398,-51.227806
AVENIDA,ANA COSTA 542,155,,,SANTOS,,,11060-002,-23.9681112,-46.33300463
R,TUPIS 317 LJ 01/03,156,,,BELO HORIZONTE,,,30190-060,-19.921501,-43.939958
AV,MAESTRO PAULO SILVA 400 LJ 129/130,157,,,RIO DE JANEIRO,,,21920-440,-22.80142444,-43.20217982
AV,FLAVIO RIBEIRO COUTINHO 805 LJ T- 306,159,,,JOAO PESSOA,,,58037-000,-7.097653,-34.841158
AVENIDA,DOUTOR FRANCISCO MESQUITA 1000 LJ ANC Q,162,,,SAO PAULO,,,03153-001,-23.62838107,-46.63424344
AV,ARICANDUVA 5555 LJ ANC F,163,,,SAO PAULO,,,03527-000,-23.56517136,-46.50743261
AVENIDA,ANTONIO FREDERICO OZANAN 6000 LJ 2600,165,,,JUNDIAI,,,13215-900,-23.19866062,-46.86636384
R,ERMELINO DE LEAO 703 ANCORA 1,166,,,PONTA GROSSA,,,84035-000,-25.095494,-50.154202
AV,PEREIRA BARRETO 42  LOJA 1,168,,,SANTO ANDRE,,,09190-210,-23.668448,-46.533061
AV,SETE DE SETEMBRO 2775 LJ 2076,169,,,CURITIBA,,,80230-010,-25.437324,-49.265671
AV,PRESIDENTE KENNEDY 1500 LJ ANC AM,173,,,RIBEIRAO PRETO,,,14096-350,-21.2014644,-47.76752438
AVENIDA,CENTENARIO 2992 PISO L3,174,,,SALVADOR,,,40155-150,-12.99031585,-38.51124306
AV,AFONSO PENA 4909 SL CM 1501,176,,,CAMPO GRANDE,,,79031-900,-20.45957,-54.59155
AV,LIMEIRA 722 SUC TER,177,,,PIRACICABA,,,13414-900,-22.70303799,-47.64937763
RODOVIA,MARECHAL RONDON KM 105 SL COM 104,179,,,ITU,,,13312-000,-23.26307774,-47.28513915
AV,ASSIS BRASIL 3522 LOJA 200,181,,,PORTO ALEGRE,,,91010-003,-30.01054798,-51.15136864
RUA,SAMUEL HEUSI 234 LJ ANC 001,182,,,ITAJAI,,,88301-320,-26.904123,-48.659856
AV,SAO GONCALO 100 LOJA 116,184,,,SAO GONCALO,,,24466-240,-22.812511,-43.072571
RUA,210 QS 01 LT 40 LJ 2006/2007/2008/2009 E 2010 AGUAS CLAR 0,185,,,BRASILIA,,,71950-904,-15.84174,-48.044812
AV,NACOES UNIDAS 2001 LJ 1004 A,186,,,NOVO HAMBURGO,,,93320-021,-29.732278,-51.126319
AV,DOUTOR OLIVIO LIRA 353 SUC 07 1 P,187,,,VILA VELHA,,,29101-950,-20.33992479,-40.2874959
ESTRADA,MUNICIPAL SAO JOAO DE MERITI 111 LJ 323 P 1,188,,,SAO JOAO DE MERITI,,,25586-140,-22.797112,-43.352351
AV,TOLEDO 432 LOJA 121,189,,,CASCAVEL,,,85810-230,-24.950515,-53.477397
AVENIDA,RIO VERDE S/N QD102 LJ25,190,,,APARECIDA DE GOIANIA,,,74916-260,-16.741921,-49.27817
AVENIDA,JOAQUIM POMPEU DE TOLEDO 601 LJS 52/53,191,,,ARACATUBA,,,16020-050,-21.22226428,-50.4355521
AVENIDA,DO CONTORNO 6061 LJ 115/116,192,,,BELO HORIZONTE,,,30110-110,-19.93998,-43.933978
AVENIDA,RIO NEGRO 1100 LOJA C 1,193,,,FRANCA,,,14406-005,-20.54156675,-47.41722517
AV,SANTA BARBARA 777 LOJA A,194,,,SANTA BARBARA D'OESTE,,,13456-080,-22.75433369,-47.39048695
AVENIDA,GUILHERME CAMPOS 500 LJ 179/180,195,,,CAMPINAS,,,13087-901,-22.85540589,-47.05685728
AVENIDA,AYRTON SENNA DA SILVA 1511 LJ 40 PISO,196,,,PRAIA GRANDE,,,11726-000,-23.996377,-46.409297
RUA,SETE DE SETEMBRO 1213 SL 17,197,,,BLUMENAU,,,89010-203,-26.919745,-49.06846
AVENIDA,CARAPINIMA 2200 ILHAS 001,199,,,FORTALEZA,,,60015-290,-3.739442,-38.540211
AVENIDA,AZIZ MARON 0 LJ 21 A 24,200,,,ITABUNA,,,45605-415,-14.800841,-39.277086
RUA,JOAO CAMILO DE CAMARGO 5 LOJA 233,202,,,HORTOLANDIA,,,13184-290,-22.864972,-47.21659
AV,NOSSA SENHORA DE LOURDES 63 2PISO/LJ8B,204,,,CURITIBA,,,81530-020,-25.451194,-49.229182
AV,TUIUTI 710 LJ AN44/45,205,,,MARINGA,,,87040-360,-23.422709,-51.90855
RUA,XV DE NOVEMBRO 1960,207,,,SAO JOSE DOS PINHAIS,,,83005-000,-25.538368,-49.199662
AV,RUBENS MENDONCA 3300 LJ ANC N1,208,,,CUIABA,,,78050-250,-15.58868767,-56.08298936
RUA,SIQUEIRA CAMPOS 1545 LJ 98 / 99,210,,,PRESIDENTE PRUDENTE,,,19013-030,-22.13304475,-51.39199567
AVENIDA,RECANTO DAS EMAS QUADRA 103 LOTES 3 E 4 0 LOJA 1,211,,,BRASILIA,,,72610-321,-15.904114,-48.068276
AV,ALBERTO BRAUNE 124 LJ SL11/13,213,,,NOVA FRIBURGO,,,28613-000,-22.285573,-42.531627
RUA,DONA MARIA ALVES 345,214,,,UBATUBA,,,11680-000,-23.43358,-45.079491
RUA,MAESTRO CARLOS FRANK 1351,216,,,CURITIBA,,,81750-323,-25.518453,-49.231264
AVENIDA,ANHANGUERA 0 QD58 LT129,217,,,GOIANIA,,,74040-010,-16.675169,-49.280209
AVENIDA,LUIS EDUARDO 66/86 LJ 2 LJ 1,219,,,SIMOES FILHO,,,43700-000,-12.785551,-38.394729
SHC/AOS,EQ 2/8 LOTE 05 LOJA SS-01 0,222,,,BRASILIA,,,70660-090,-15.803868,-47.941145
RUA,MORAIS E CASTRO 300 LOJA 220,223,,,JUIZ DE FORA,,,36025-160,-21.776311,-43.347919
RUA,BARAO DE JACAREI 364 LOJA 46,224,,,JACAREI,,,12308-001,-23.303912,-45.963291
AVENIDA,BERNARDO VIEIRA 3775 LJ ANC 108,226,,,NATAL,,,59015-450,-5.812079642,-35.20670696
RUA,FONSECA 240 LOJA 127E,227,,,RIO DE JANEIRO,,,21820-005,-22.877773,-43.465571
AV,GETULIO VARGAS 268 LJ 228,228,,,JARAGUA DO SUL,,,89251-000,-26.479992,-49.085574
AVENIDA,ANDROMEDA 227 SUC 112,229,,,SAO JOSE DOS CAMPOS,,,12230-000,-23.25018166,-45.88579139
AV,SATURNINO BRAGA 369 LOJA 117,230,,,RESENDE,,,27511-300,-22.46671877,-44.45159086
AV,GIOVANNI GRONCHI 5819 122B/C 123,231,,,SAO PAULO,,,05724-003,-23.631024,-46.735284
RUA,44 399 LJ ANC 4,232,,,GOIANIA,,,74063-010,-16.661961,-49.256988
AV,GUILHERME SHELL 6750 LJ ANC 06,233,,,CANOAS,,,92310-001,-29.90909384,-51.18172017
RUA,SAO JOSE 933 LJ 315/330,234,,,RIBEIRAO PRETO,,,14010-160,-21.18354334,-47.80966258
RUA,ITACOLOMI 292 LJ 237,235,,,CURITIBA,,,81070-150,-25.479346,-49.294518
AV,PREFEIRO SEVERINO BEZERRA CABRAL 1190   LJ 143,236,,,CAMPINA GRANDE,,,58104-170,-7.252665176,-35.83489996
AVENIDA,PIRACEMA 669 LJ ANC G,239,,,BARUERI,,,06460-030,-23.505328,-46.832655
ST,COML SUL QDA 07 BL A LOJA 03 S PRIMEIRO SUBSOLO 0,240,,,BRASILIA,,,70307-902,-15.795495,-47.892347
AV,DAS NACOES UNIDAS 22540  LJ R425,242,,,SAO PAULO,,,04795-000,-23.678525,-46.696961
RUA,DR JOAO SANTOS FILHO  255 LJ 053-SS,243,,,RECIFE,,,52060-904,-8.036549,-34.912965
AV,PEDRO LINHARES GOMES 3900 SV LUC 88,245,,,IPATINGA,,,35160-290,-19.494994,-42.564386
RODOVIA,PRESIDENTE DUTRA KM 230 0 LJ B 06,246,,,GUARULHOS,,,07034-911,-23.490052,-46.548538
RUA, ADJAR DA SILVA CASE 800 LJ N 300,247,,,CARUARU,,,55024-740,-8.269903,-35.985426
AV,SILVIO MONTEIRO DOS SANTOS 180 LJ 120,249,,,POCOS DE CALDAS,,,37704-369,-21.774326,-46.602559
AV,JOAO DURVAL CARNEIRO 3665 LJ 179 B,250,,,FEIRA DE SANTANA,,,44037-010,-12.241536,-38.947194
AVENIDA,JURACY MAGALHAES 3340 QD 7 LJANC,252,,,VITORIA DA CONQUISTA,,,45023-490,-14.889714,-40.844793
RUA,GETULIO VARGAS 364,254,,,BACABAL,,,65700-000,-4.235297,-44.782963
QD,14 AREAS ESPECIAIS 3 E 4 LJS N 69 E 70 TERREO 0,255,,,BRASILIA,,,73050-140,-15.650726,-47.784219
AVENIDA,BRASILIA 146 LJ 309/363,257,,,CUIABA,,,78060-601,-15.57733428,-56.03421041
EST,DO PORTELA 222 LJ302 3 PV,258,,,RIO DE JANEIRO,,,21351-050,-22.870499,-43.341806
RUA,ALVARES DE AZEVEDO 99 LJ 5 A 20,260,,,SANTO ANDRE,,,09020-901,-23.65904144,-46.52917281
AV,JUSCELINO KUBITSCHEK DE OLIVEIRA 351 LJ 34/35,261,,,GUARATINGUETA,,,12505-300,-22.816389,-45.1925
AVENIDA,MARCELINO PIRES 3600 LOJA A 10,263,,,DOURADOS,,,79830-000,-22.226212,-54.793884
RUA,SETE DE SETEMBRO 555 LJ 50/51,264,,,SUZANO,,,08673-020,-23.6975738,-46.6385737
CSB,02 LOTES 01/04 LOJAS S-01 A S-07 PISO SUBSOLO ALAMEDA SH 0,265,,,BRASILIA,,,70015-525,-15.836151,-48.056946
AV,ENGENHEIRO ROBERTO FREIRE 8790 J31 32 33,266,,,NATAL,,,59082-400,-5.860914,-35.191978
AV,GABRIEL ZANETTE 1455 SL 42 A 49,267,,,CRICIUMA,,,88815-060,-28.68000238,-49.34943225
AVENIDA,AFONSO VAZ DE MELO 640 LJ246/247,268,,,BELO HORIZONTE,,,30640-070,-19.974276,-44.020899
AV,MARECHAL FLORIANO PEIXOTO 306 LJ 1 A 8,269,,,CURITIBA,,,80010-130,-25.43342,-49.270868
AV,SENADOR CARLOS JEREISSATI 100 P1 106/107,270,,,MARACANAU,,,61900-010,-3.879455,-38.621634
AV,SENHOR DOS PASSOS 942,271,,,FEIRA DE SANTANA,,,44010-231,-12.25417,-38.965332
AVENIDA,CHARLES SCHNNEIDER 1700 LUCS 21/22,272,,,TAUBATE,,,12040-900,-23.02598,-45.58043
AV,PROFESSOR CARLOS CUNHA 3000,273,,,SAO LUIS,,,65076-820,-2.506936,-44.284786
RUA,MOACIR JOSE LEITE 100 LJS A/182,274,,,DIVINOPOLIS,,,35504-999,-20.12818161,-44.88214341
AV,WASHINGTON SOARES 3690 LJ 05,275,,,FORTALEZA,,,60830-641,-3.789402,-38.480625
AVENIDA,GOVERNADOR MARIO COVAS JUNIOR 1 LJ 07,277,,,MAUA,,,09310-000,-23.666085,-46.459936
RUA,EDMUNDO BITTENCOURT 101 LJ205/211,278,,,TERESOPOLIS,,,25953-030,-22.722812,-43.471916
AV,PADRE CICERO 2555 LJ 110/114,280,,,JUAZEIRO DO NORTE,,,63041-140,-7.221814,-39.325552
RUA,BARAO DO RIO BRANCO 173 LJ08/09/10,281,,,TRES RIOS,,,25804-010,-22.11677935,-43.21102738
AV,SANTA BEATRIZ SILVA 1501 LJ 423,283,,,UBERABA,,,38050-000,-19.76573,-47.951612
AV,ANHANGUERA 14404 LJ 238/9,285,,,GOIANIA,,,74450-010,-16.660915,-49.324768
AV,SANTA CATARINA 01  LJ ANC 03,286,,,BALNEARIO CAMBORIU,,,88339-005,-26.988735,-48.633312
RUA,CORONEL CLAUDIO 215 LJ 02 SLJ,288,,,PONTA GROSSA,,,84010-120,-25.09402,-50.157837
AV,CONSELHEIRO MOREIRA DE BARROS 2780 LJ 1011,289,,,SAO PAULO,,,02430-001,-23.483227,-46.645704
RUA,JOAO DA ESCOSSIA 1515 LJ 36 1515 PISO TERRE,291,,,MOSSORO,,,59607-330,-5.180424,-37.363174
AV,COSTA E SILVA 185 LJ 123,292,,,FOZ DO IGUACU,,,85863-000,-25.532912,-54.574286
AV,INDEPENDENCIA 3600,294,,,JUIZ DE FORA,,,36025-290,-21.781136,-43.360894
RUA,HENRIQUE SAVI 15-55 UN 73,296,,,BAURU,,,17011-900,-22.33724563,-49.05389324
AVENIDA,JOSE MUNIA 4775 LJ A12,297,,,SAO JOSE DO RIO PRETO,,,15085-350,-20.82708,-49.38743
AVENIDA,DOM PEDRO I 402 LJ S200,299,,,BELO HORIZONTE,,,31710-000,-19.840905,-43.967372
RUA,DOUTOR COUTINHO 733 LUC 38/39,301,,,ITAPETININGA,,,18200-358,-23.5792438,-48.03805006
RUA,QUINZE DE NOVEMBRO 317,302,,,SAO JOSE DOS CAMPOS,,,12210-070,-23.18372912,-45.88686803
AVENIDA,DOM LUIZ 500 LJ 325A,304,,,FORTALEZA,,,60160-230,-3.733683,-38.496345
101,SUL RUA NS A S/N CJ 2 LT 10,305,,,PALMAS,,,77015-004,-10.190772,-48.334929
AV,PRESIDENTE VARGAS 1740 LJ 115,306,,,RIO VERDE,,,75903-290,-17.789271,-50.919564
AVENIDA,NAZARE 1175 ANEXO 1187,307,,,BELEM,,,66035-170,-1.452213,-48.482343
RUA,GAVIAO PEIXOTO 171 LJ 105,308,,,NITEROI,,,24030-091,-22.903981,-43.10979
AVENIDA,LIONS INTERNACIONAL 1950 LJ 408/413,310,,,RONDONOPOLIS,,,78700-000,-16.471759,-54.608998
RUA, DO CRUZEIRO 135,311,,,JUAZEIRO DO NORTE,,,63010-070,-7.204822,-39.307987
AVENIDA,BRASIL 505 ANCORA 2,312,,,ANAPOLIS,,,75080-240,-16.28757367,-48.94933939
AVENIDA,LAVA PES 500 SUC-2-8,313,,,CUIABA,,,78043-900,-15.58919188,-56.10927313
RUA,DOUTOR RICARDO VILELA 39 43,314,,,MOGI DAS CRUZES,,,08710-150,-23.521312,-46.195545
RUA,NOVE DE JULHO 1138 R SAMPAIO,315,,,MARILIA,,,17500-120,-22.21815736,-49.9495567
AV.,DONATO QUINTINO 90 LC 117,317,,,MONTES CLAROS,,,39400-546,-16.739977,-43.870898
RUA,DOS TUCUNARES 509 LJ A,320,,,MARILIA,,,17507-280,-22.18752286,-49.96781286
RUA,EDUARDO CARLOS PEREIRA 3604 LJ 1001,323,,,CURITIBA,,,81020-770,-25.477984,-49.289481
RUA,INDEPENDENCIA 455,325,,,SAO LEOPOLDO,,,93010-002,-29.763719,-51.146339
AV,WASHINGTON SOARES 4335 200,327,,,FORTALEZA,,,60833-005,-3.795135,-38.479938
RUA,PAISANDU 955 971SEN TEO,328,,,TERESINA,,,64001-120,-5.091193,-42.810781
RUA,FERNANDES LIMA 679 LJ ANC 1,329,,,MACEIO,,,57055-000,-9.644603,-35.734645
RUA,ADAO MANOEL DA SILVA 584 LUC/ANCORA,331,,,SAO JOSE,,,88113-260,-27.556411,-48.622195
AV,SAUL ELKIND 2101 QD01LUC173,332,,,LONDRINA,,,86082-000,-23.259303,-51.158051
AV,"VINTE E DOIS DE MAIO 5973 LJ BKM29,5",334,,,ITABORAI,,,24800-097,-22.745759,-42.854759
PRACA,FELIX GASPAR 53,336,,,SANTO ANTONIO DE JESUS,,,44572-055,-12.956034,-39.267278
SCC,"LTS 01,05 E 06 PISO TERREO ( LJS 01 E 02 MOD. E) E SL 01 0",337,,,BRASILIA,,,72404-000,-16.026339,-48.067806
AVENIDA,ENGENHEIRO JOSE NELSON MACHADO 280 LJ A 41,339,,,CATANDUVA,,,15800-200,-21.126568,-48.977469
AV,DJALMA BATISTA 1661 LJ 256/257,340,,,MANAUS,,,69050-010,-3.089016,-60.024029
AV,DR JOAO MEDEIROS FILHO 2300 LOJA 39 2P,342,,,NATAL,,,59120-555,-5.752956,-35.236137
RUA,IZABEL A REDENTORA 1434 LUC 119 TE,344,,,SAO JOSE DOS PINHAIS,,,83005-010,-25.537421,-49.20454
RUA,PUGLISI 276 TERREO,345,,,GUARUJA,,,11410-000,-23.994262,-46.25709
LOC,QUADRA 01 0 GLEBA F,346,,,VALPARAISO DE GOIAS,,,72876-902,-16.079021,-47.985905
RUA,PRINCESA ISABEL 361 TERREO SLJ,347,,,BARREIRAS,,,47803-070,-12.150709,-44.993885
QN,318 CONJ. 02 LOTE N(o) 01 0,348,,,BRASILIA,,,72308-702,-15.871412,-48.063836
AV,MAURICIO CARDOSO 230 LJ 101,349,,,ERECHIM,,,99700-000,-27.632603,-52.274816
AVENIDA,SANTOS DUMONT 6008,350,,,LAURO DE FREITAS,,,42700-000,-12.901188,-38.347749
RUA,DR. ALVES PEQUENO 234 LJ 01/ SLJ,351,,,MURIAE,,,36880-000,-21.132462,-42.365788
AV,MARECHAL CASTELO BRANCO 358 358 FUNDOS,352,,,TEIXEIRA DE FREITAS,,,45995-041,-17.538884,-39.744331
AV,JOAO NAVES DE AVILA 1331 LJ05,353,,,UBERLANDIA,,,38408-902,-18.911251,-48.262418
RODOVIA,VIRGILIO VARZEA  587 LJ 111,354,,,FLORIANOPOLIS,,,88032-000,-27.55448,-48.497366
AVENIDA,TANCREDO NEVES 543 SL 10/11,355,,,SORRISO,,,78890-000,-12.55099,-55.71941
AVENIDA,DR QUINZINHO 511 TER LJ 01,356,,,JAU,,,17210-110,-22.297796,-48.546157
RUA,QUATORZE DE JULHO 1781,357,,,CAMPO GRANDE,,,79002-330,-20.465297,-54.61688
AVENIDA,COUTO MAGALHAES 2056,360,,,VARZEA GRANDE,,,78110-400,-15.648057,-56.138274
AVE,DANIEL DE LA TOUCHE 2000,361,,,SAO LUIS,,,65074-115,-2.522853,-44.249232
AV,PORTO SEGURO 615 TERREO,365,,,EUNAPOLIS,,,45820-006,-16.372414,-39.577731
RODOVIA,BR 316 141 A KM 03,366,,,ANANINDEUA,,,67015-220,-1.365716,-48.364993
RUA,SENADOR ANTONIO LEMOS 450,368,,,CASTANHAL,,,68740-010,-1.295134,-47.926838
RODOVIA,RIO SANTOS 0 1041,369,,,ITAGUAI,,,23812-101,-22.866762,-43.750158
BR,364 VIA VERDE - SHOPPING 1707 LOJA 041,371,,,RIO BRANCO,,,69914-220,-9.970832,-67.812152
AV,AGAMENON MAGALHAES 444 LOJA 31,373,,,CARUARU,,,55012-290,-8.280868,-35.973938
AV,RIO BRANCO 425 LOJA 310,376,,,CAXIAS DO SUL,,,95010-060,-29.17169,-51.1908
AV,EUDES SCHERRER DE SOUZA 1996 LOJA 33,377,,,SERRA,,,29167-080,-20.193602,-40.266776
RUA,QUINZE DE NOVEMBRO 67,379,,,ARAPIRACA,,,57300-340,-9.748188,-36.659836
SHD,PROJECAO N 0 1 ANDAR,381,,,BRASILIA,,,73310-200,-15.618651,-47.651291
AV,UNIVERSITARIA 2221,382,,,ANAPOLIS,,,75083-350,-16.302109,-48.947623
ROD,GO 40 S/N QD AREA LT,384,,,GOIANIA,,,74354-535,-16.770019,-49.351831
AVENIDA,RUI BARBOSA  468 NA470 LJ02,385,,,JUIZ DE FORA,,,36045-410,-21.74275,-43.363207
AVENIDA,DOS AUTONOMISTAS 1400 LJ ANC J,388,,,OSASCO,,,06020-010,-23.541741,-46.766475
AV,BEZERRA DE MENEZES 871 A,389,,,FORTALEZA,,,60325-003,-3.733312,-38.552576
QNM,12 VIA NM 12B 0 LOTE 24,391,,,CEILANDIA,,,72210-120,-15.812933,-48.105471
RUA,COMANDANTE VITAL ROLIM 989 LJ 01- TER,392,,,CAJAZEIRAS,,,58900-000,-6.886753,-38.548568
RUA,MANOEL DA NOBREGA 712 LOJA 101,393,,,DIADEMA,,,09910-720,-23.691369,-46.623818
RUA,GUSTAVO MACIEL 54,394,,,BAURU,,,17010-200,-22.322891,-49.070887
AV,DJALMA BATISTA 2100 LOJA A2,395,,,MANAUS,,,69050-010,-3.094998,-60.024017
VIA,CONSELHEIRO ANTONIO PRADO 1400 SUC N ANCO,396,,,BARRETOS,,,14784-200,-20.568166,-48.564721
RUA,VICENTE NUNES DE ALBUQUERQUE 0 LOJA 01,397,,,ARAPIRACA,,,57311-250,-9.735959,-36.655033
AV,SAO LUIZ REI  DE FRANCA 8 LJ 1033,398,,,SAO LUIS,,,65065-470,-2.535149,-44.226218
RUA,POMPILIO ESPINHEIRA 0,399,,,ITAPETINGA,,,45700-000,-15.246055,-40.251957
RUA,TREZE DE MAIO 107,402,,,ALAGOINHAS,,,48005-430,-12.139384,-38.422972
AVENIDA,PEDRO MIRANDA 1701,403,,,BELEM,,,66085-023,-1.42411,-48.469622
RODOVIA,BA - 526 305 SL CM 1036,404,,,SALVADOR,,,41510-000,-12.913469,-38.351482
AVE,24 DE OUTUBRO 934 Q 50 LOTE6,405,,,GOIANIA,,,74505-010,-16.667437,-49.296035
AV,ALBERTO MARANHAO 1359,407,,,MOSSORO,,,59600-195,-5.208912,-37.355444
LOC,QUADRA 481 S/N QD 481 LT2,409,,,NOVO GAMA,,,72860-444,-16.054846,-48.028901
RUA,SAO BENTO 916,410,,,ARARAQUARA,,,14801-300,-21.791787,-48.175805
RODOVIA,BR-104 S/N KM 62 LUC,412,,,CARUARU,,,55014-908,-8.247593,-35.976375
AVENIDA,LUIS VIANA 8544 LJ 120/121,413,,,SALVADOR,,,41730-101,-12.967612,-38.438762
AV,PORTUGAL 213 TERREO,415,,,BELEM,,,66015-190,-1.453233,-48.503572
AVENIDA,ITABUNA 1491 SUC S 023,416,,,ILHEUS,,,45650-015,-14.790822,-39.044448
RUA,CONDE DE BONFIM 685 LJ C PISO,419,,,RIO DE JANEIRO,,,20520-052,-22.93219,-43.240299
PRACA,DOUTOR GARCIA COUTINHO 72,420,,,POUSO ALEGRE,,,37550-000,-22.22617,-45.958199
PRACA,ANDRADAS 177,423,,,BARBACENA,,,36200-008,-21.225522,-43.773129
RUA,BARCELOS DOMINGOS 25 E 27,424,,,RIO DE JANEIRO,,,23080-020,-22.901517,-43.559036
RUA,ITABAIANINHA 162,426,,,ARACAJU,,,49010-190,-10.912314,-37.05034
AVENIDA,OSVALDO CRUZ 120 LJ INF 70,428,,,ITUMBIARA,,,75516-020,-18.403973,-49.211564
AVENIDA,1 538,429,,,NOSSA SENHORA DO SOCORRO,,,49160-000,-10.857368,-37.081968
AV,PEDRO ALVARES CABRAL 9031 LOJA C,431,,,BELEM,,,66615-860,-1.436301,-48.491648
AVENIDA,"ANTONIO ANGELIM 570 LJS 25,29",433,,,SALGUEIRO,,,56000-000,-8.071852,-39.127348
AVENIDA,JOSE TOZZI 1821,435,,,SAO MATEUS,,,29930-245,-18.716765,-39.855647
RUA,G (LOTEAMENTO PRQ MONTENEGRO I) 200 LJS 02/03,437,,,FORTALEZA,,,60761-285,-3.820893,-38.554971
AVENIDA,BARAO DE LUCENA 333,439,,,JABOATAO DOS GUARARAPES,,,54110-000,-8.111979,-35.014144
AV,DR RAUL ALVES 4,440,,,JUAZEIRO,,,40000-000,-9.434414,-40.507021
RUA,SAO VICENTE DE PAULA 152,441,,,ITABUNA,,,45600-105,-14.787727,-39.273956
AV,PRESIDENTE JOAO PESSOA 381,442,,,CAMPINA GRANDE,,,58400-002,-7.216932,-35.888566
AV,SANTO ANTONIO 81 91,443,,,GARANHUNS,,,55293-000,-8.890852,-36.495752
PRACA,DA BANDEIRA 10,444,,,ARCOVERDE,,,56506-590,-8.420668,-37.058441
AVENIDA,TREZE DE MAIO 83,445,,,CAMPOS DOS GOYTACAZES,,,28010-260,-21.759427,-41.323301
AV,CARLOS GOMES 1360,446,,,PORTO VELHO,,,76801-109,-8.761143,-63.902007
RUA,JOAQUIM MURTINHO 196,447,,,CUIABA,,,78005-290,-15.597669,-56.096783
AVENIDA,GOVERNADOR JULIO CAMPOS 831,448,,,SINOP,,,78550-228,-11.85652,-55.503333
RUA,ITAPERA 500 SUC 101B,449,,,RIO DE JANEIRO,,,21230-500,-22.823033,-43.319799
RUA,OPHIR JOSE BRAZ S/N LUC 123,451,,,LUZIANIA,,,72800-150,-16.255991,-47.955323
AVENIDA,MARECHAL RONDON 1096,452,,,RONDONOPOLIS,,,78700-075,-16.470762,-54.62837
RUA,LEONCIO WANDERLEY 0,454,,,PATOS,,,58700-120,-7.03096,-37.279921
AVENIDA,APOLONIO CHAVES 0,455,,,PAULO AFONSO,,,48601-200,-9.407827,-38.223345
RUA,RUI BARBOSA 1300 ST 4 LJ 90,457,,,GUARABIRA,,,58200-000,-7.036061,-37.275989
JUCA,SAMPAIO 2178,459,,,MACEIO,,,57045-365,-9.631207,-35.715469
RODOVIA,470 0 REMANESC 1,460,,,BLUMENAU,,,89070-200,-27.097356,-52.619045
AVENIDA,CARMELA DUTRA 1748,462,,,NILOPOLIS,,,26530-020,-22.80735,-43.415374
RUA,MANUEL JOAO GONCALVES 188 LOTE 25,463,,,SAO GONCALO,,,24711-080,-22.820095,-43.001003
SCHIN,CA 01 LOTE A BLOCO A 0,465,,,BRASILIA,,,71503-501,-15.719743,-47.88226
AVENIDA,PRESIDENTE KENNEDY 7204 7210/7218,466,,,PRAIA GRANDE,,,11704-100,-23.728783,-46.616364
AVENIDA,CONDE FRANCISCO MATARAZZO JUNIOR 205 LOJA A 05,468,,,RIO CLARO,,,13506-845,-22.413111,-47.553216
AVENIDA,PADRE ANCHIETA 137 LOTE A,469,,,MAGE,,,25900-000,-22.656,-43.040116
RUA,DOUTOR MONTEIRO DE AZEVEDO 34 335/394,471,,,ITAGUAI,,,23810-500,-22.872811,-43.775004
PERIMETRAL,NORTE 6 QS 34,472,,,PALMAS,,,77064-532,-10.334433,-48.303659
AVENIDA,VEREADOR NILO TORRES 751 W,474,,,TANGARA DA SERRA,,,78300-970,-15.021789,-57.452391
RUA,DOS ANDRADAS 1001 LJ 01 A 36,476,,,PORTO ALEGRE,,,90020-015,-30.030584,-51.231855
AVENIDA,DOM JOAO VI 215,478,,,SALVADOR,,,40285-000,-12.989656,-38.491532
AVENIDA,BRASIL 22155 207-17,480,,,RIO DE JANEIRO,,,21670-000,-22.840466,-43.369519
AVENIDA,JULIO ANTONIO THURLER 129 AREA B LOJ,482,,,NOVA FRIBURGO,,,28620-000,-22.30395,-42.54095
RUA,PRESIDENTE ANTONIO CARLOS 146,483,,,PASSOS,,,37900-092,-20.719544,-46.609867
RUA,EPITACIO PESSOA 1250,485,,,QUIXADA,,,63900-000,-4.968397,-39.002798
AVENIDA,FRANCISCO SA 3780 LOJA 1,486,,,FORTALEZA,,,60310-052,-3.71694,-38.55871
RUA,CARIJOS 1675,487,,,SANTO ANDRE,,,09180-001,-23.68483,-46.52187
AVENIDA,PRESIDENTE TANCREDO NEVES 100 LUC ANC 02,488,,,JATAI,,,75805-123,-17.889821,-51.724607
RUA,PADRE ANTONIO DE SA 103,489,,,SALVADOR,,,40411-010,-12.943542,-38.500745
ROD,BR 010 100 SUC F110,490,,,IMPERATRIZ,,,65903-390,-5.461273,-47.481095
ESTRADA,PINDAMONHANGABA/TAUBATE 0 LOJA ANC 7,491,,,PINDAMONHANGABA,,,12424-590,-22.94987,-45.479692
AVENIDA,NERO MACEDO 400,492,,,GOIANIA,,,74423-250,-16.680585,-49.312297
PRACA,JOAO PESSOA 168 174/184,493,,,SUZANO,,,08674-040,-23.535708,-46.309263
AVENIDA,RAUL LOPES 1000 SUC 02 ANC,494,,,TERESINA,,,64046-902,-5.080706,-42.794541
SETOR,NORTE COMERCIO LOCAL 114 LOTE D 0 SL 111/114,495,,,BRASILIA,,,72544-204,-16.025591,-47.950972
AV,PRESIDENTE DUTRA 1250,496,,,ITAPERUNA,,,28300-000,-21.201791,-41.894822
PRACA,DOUTOR GUALBERTO DANTAS FONTES 138,497,,,CANDEIAS,,,43805-010,-12.670989,-38.544029
AV,NOSSA SENHORA DE COPACABANA 249 LJ A/B/C/D,500,,,RIO DE JANEIRO,,,22020-002,-22.965936,-43.178384
AVENIDA,MARACANA 987 LOJAS 3056,502,,,RIO DE JANEIRO,,,20530-230,-22.922687,-43.236083
R,VISCONDE DE PIRAJA 146 LJ A / B,503,,,RIO DE JANEIRO,,,22410-002,-22.98451346,-43.19927498
RUA,SAO BENTO 293,505,,,SAO PAULO,,,01011-000,-23.54652085,-46.63534834
AVENIDA,POMPEIA 242,507,,,SAO PAULO,,,05022-000,-23.527138,-46.682897
RUA,VISCONDE DO RIO BRANCO 360 LJS 127 A,508,,,NITEROI,,,24020-002,-22.89215605,-43.12379997
RUA,DOM PEDRO II 178 LUC 206 1P,510,,,GUARULHOS,,,07011-003,-23.469633,-46.525717
RUA,JOAQUIM NABUCO 39 41,511,,,SAO PAULO,,,04621-000,-23.623192,-46.684746
AVENIDA,DOS AUTONOMISTAS 1768 1828 LJ AN,513,,,OSASCO,,,06090-010,-23.5390066,-46.77188786
ALAMEDA,SANTOS 38,514,,,SAO PAULO,,,01418-000,-23.57181,-46.645552
RUA,VISCONDE DO RIO BRANCO 247,516,,,TAUBATE,,,12020-040,-23.02656502,-45.55674754
RUA,QUINZE DE NOVEMBRO 75,517,,,SOROCABA,,,18010-080,-23.49999558,-47.45595793
R,CONDE DE BONFIM 42,519,,,RIO DE JANEIRO,,,20520-053,-22.9231377,-43.2228174
RUA,JOAQUIM FLORIANO 630,521,,,SAO PAULO,,,04534-002,-23.584983,-46.676005
RUA,AUGUSTA 2499 2503,522,,,SAO PAULO,,,01413-100,-23.54990425,-46.64605825
AVENIDA,DA LIBERDADE 863 TER MEZANI,525,,,SAO PAULO,,,01503-001,-23.560188,-46.638003
EST,FRANCISCO DA CRUZ NUNES 5950,526,,,NITEROI,,,24350-310,-22.937757,-43.061122
LARGO,DO AROUCHE 49 LJ 29 1 PA,528,,,SAO PAULO,,,01219-001,-23.542971,-46.643954
RUA,DO CATETE 261,530,,,RIO DE JANEIRO,,,22220-001,-22.9293,-43.177406
SD/NORTE,LOJA S-132 CONJUNTO NACIONAL BRASILIA 0,206,,,BRASILIA,,,72577-900,-15.79102837,-47.88573497
AVENIDA,1 DE JULHO 454,209,,,DIVINOPOLIS,,,35500-002,-20.145054,-44.887661
QUADRA,02 MC 0 MC LT 6,212,,,PLANALTINA,,,73751-027,-16.344898,-48.907278
AVENIDA,MARECHAL FLORIANO PEIXOTO 77,215,,,PAULISTA,,,53401-460,-7.952553,-34.876584
AVENIDA,CEREJEIRAS 300 LUC 1113,218,,,LINHARES,,,29906-014,-20.734077,-40.537303
AV,GEN FLORES DA CUNHA 4001 LJ 101,221,,,CACHOEIRINHA,,,94950-001,-29.93543,-51.079928
RUA,SILVA BUENO 2222 2232,225,,,SAO PAULO,,,04208-002,-23.598231,-46.600604
AVENIDA,PROFESSOR FRANCISCO MORATO 2718  LJ 201,238,,,SAO PAULO,,,05512-300,-23.585616,-46.724474
AV,MARCOLINO MARTINS CABRAL 2525 LJ A 2,241,,,TUBARAO,,,88701-001,-28.47487236,-48.99394218
AV,DAS ARAUCARIAS LTS 1835 1905 1955 E 2005 LJS 200A 200B E 0,244,,,BRASILIA,,,71936-250,-15.842345,-48.024368
RUA,MATO GROSSO 310 LJ ANC 333,248,,,LONDRINA,,,86010-180,-23.311397,-51.156456
RUA,ENGENHEIRO PORTELA 45,251,,,ANAPOLIS,,,75120-120,-16.32496603,-48.9564683
AV,PROF CARLOS CUNHA 1000 L 158/171,253,,,SAO LUIS,,,65076-820,-2.510602,-44.285374
AV,GENERAL DAVID SARNOFF 5160 LJ 237,256,,,CONTAGEM,,,32210-110,-19.947452,-44.02261
AV,SENADOR SALGADO FILHO 2234 LJ 310,259,,,NATAL,,,59064-900,-5.821094463,-35.20808451
ROD,"REGIS BITTENCOURT KM 271,5 0 LJ 95 A",262,,,TABOAO DA SERRA,,,06768-200,-23.615345,-46.777485
RUA,BERNADINO DE CAMPOS 2932 2934/2940,276,,,SAO JOSE DO RIO PRETO,,,15015-300,-20.81172514,-49.38120476
RUA,CARLOS GOMES 1321 LUC 201 P1,279,,,LIMEIRA,,,13480-013,-22.56996613,-47.40734133
AV,SENADOR LEMOS 3153 LJ 269 P T,282,,,BELEM,,,66120-000,-1.417335,-48.478732
AV,JOAO PESSOA 1831 LOJA 218,284,,,PORTO ALEGRE,,,90040-001,-30.04585,-51.212911
RUA,FREI GASPAR 365 SUC N 101,287,,,SAO VICENTE,,,11310-060,-23.96729847,-46.38313699
AV,NOSSA SENHORA DAS DORES 305 UNID 201,290,,,SANTA MARIA,,,97050-531,-29.689414,-53.795031
RUA,SETE DE SETEMBRO 1213 LOJA ANC,293,,,GOVERNADOR VALADARES,,,35010-171,-18.847719,-41.939998
AV,DOUTOR JOSE LOZANO DE ARAUJO 1515 LJ ANC A,295,,,PAULINIA,,,13140-000,-22.77196404,-47.15140635
AV,SETE DE SETEMBRO 1199,298,,,MANAUS,,,69005-141,-3.134592,-60.019814
AV, MINAS GERAIS 471,300,,,GOVERNADOR VALADARES,,,35010-150,-18.855262,-41.9455
AVENIDA,EXPEDITO GARCIA 168,303,,,CARIACICA,,,29146-201,-20.342238,-40.384123
RUA,CORONEL BENEDITO PIRES 45,316,,,SOROCABA,,,18010-160,-23.49977359,-47.45861726
RUA,ALOISIO DA SILVA GOMES 800 LJ 139 TER,318,,,MACAE,,,27930-560,-22.391174,-41.808874
AV,RIO MADEIRA 3288 LJ ANC 212,321,,,PORTO VELHO,,,78905-450,-8.747039,-63.877345
RUA,GUAIRA 3370,324,,,GUARAPUAVA,,,85010-010,-25.393162,-51.468978
RODOVIA,PE 060 3200 LJ 112,326,,,CABO DE SANTO AGOSTINHO,,,54520-600,-8.305392,-35.022247
PRACA,ALEXINA CANDIDA CONCEICAO 05 LUC 3,330,,,PATO DE MINAS,,,38700-022,-18.586216,-46.513538
RUA,SANTOS DUMONT 60,333,,,CRATO,,,63100-040,-7.231225,-39.411839
AV,GOVERNADOR FLAVIO RIBEIRO COUTINHO 115 LJ 36,335,,,JOAO PESSOA,,,58037-000,-7.097206,-34.83438
RUA,LUIZ SPIANDORELLI NETO (LULA) 161 LJ 53/54,338,,,VALINHOS,,,13271-570,-22.984491,-47.015691
AV,PROFESSOR GOMES DE MATOS 1703,341,,,FORTALEZA,,,60410-001,-3.765211,-38.548762
RUA,CEL ERNESTO DEOCLECIANO 640,343,,,SOBRAL,,,62011-050,-3.68849,-40.351313
AV.,RUI BARBOSA 253 TER.2/3PAV,359,,,MACAE,,,27910-361,-22.371919,-41.778254
AV,DOM LUIZ 1200 LJ 201/202,362,,,FORTALEZA,,,60160-230,-3.735572,-38.49046
AV,DOS HOLANDESES 1 QD36 LJ 11,364,,,SAO LUIS,,,65071-380,-2.490708,-44.261477
AV,JOCELIM GOMES PIRES 2300 LOJA 30,367,,,CATALAO,,,75709-140,-18.172419,-47.927345
AV,TANCREDO NEVES 3133 PISO L1,370,,,SALVADOR,,,41820-910,-12.975976,-38.457653
AV,VISCONDE DE SOUZA FRANCO 776 LOJA 15,375,,,BELEM,,,66053-000,-1.444997,-48.488895
AV.,BRASIL 1670 LOJA 101,378,,,BALNEARIO CAMBORIU,,,88330-053,-26.98858,-48.633458
RUA,VOLUNTARIOS DA PATRIA 400,380,,,CAMPOS DOS GOYTACAZES,,,28035-200,-21.75953,-41.331709
RUA,04 1129,383,,,RIO CLARO,,,13500-170,-22.410406,-47.560871
AV,GO FRANCISCO LACERDA DE AGUIAR 138 LJ 325,387,,,CACHOEIRO DE ITAPEMIRIM,,,29303-384,-20.85300086,-41.11563856
RUA,QUINZE DE NOVEMBRO 1200 SUC N 49,390,,,INDAIATUBA,,,13330-070,-23.084079,-47.213533
RUA,DEZ DE NOVEMBRO 4,406,,,JEQUIE,,,45200-400,-13.866267,-39.860224
PRACA,INTERVENTOR MANOEL RIBAS 135,408,,,APUCARANA,,,86800-680,-23.552178,-51.464434
RUA,MAJOR SILVIO MIRANDA 80 84,411,,,MOGI DAS CRUZES,,,08710-660,-23.535032,-46.343079
AVENIDA,DOUTOR FRANCISCO CORREIA 381 PISO UNICO,414,,,SAO LOURENCO DA MATA,,,54735-000,-7.997877,-35.038628
RUA,SATURNINO DE BRITO 17,417,,,BELO HORIZONTE,,,30111-020,-19.913812,-43.940893
ESTRADA,PRES JUSCELINO KUBITSCHEK DE OLIVEIRA 5308 LOJA ANCOR,422,,,GUARULHOS,,,07272-345,-23.433275,-46.404018
BLV,VINTE E OITO DE SETEMBRO 393 A,425,,,RIO DE JANEIRO,,,20551-030,-22.916164,-43.248412
AVENIDA,FERREIRA VIANA 1526,427,,,PELOTAS,,,96085-000,-31.759316,-52.319065
AVENIDA,CONEGO JOAO LIMA 1451,430,,,ARAGUAINA,,,77823-010,-7.189091,-48.215086
AVENIDA,DOUTOR CLAUDIO JOSE GUEIROS LEITE 2491 LOJA 1-A,432,,,PAULISTA,,,53437-000,-7.93561,-34.825102
RUA,FERNANDO MACHADO 4000 LOJA 02,436,,,CHAPECO,,,89805-203,-27.097356,-52.619045
RUA,DUQUE DE CAXIAS 309,453,,,CAMACARI,,,42800-150,-12.699586,-38.326702
AVENIDA,AZENHA 1099,456,,,PORTO ALEGRE,,,90160-002,-30.053635,-51.214132
RUA,MONSENHOR ALOISIO PINTO 0 LOJA 60,458,,,SOBRAL,,,62050-255,-3.706103,-40.343569
RODOVIA,PA 275 0 LOJA N 59,461,,,PARAUAPEBAS,,,68515-000,-6.080099,-49.879252
RUA,DOUTOR SILVIO BASTOS TAVARES 316 338,464,,,CAMPOS DOS GOYTACAZE,,,28051-250,-21.755763,-41.348719
AVENIDA,PADRE ANCHIETA 332,467,,,PERUIBE,,,11750-000,-24.326929,-47.002067
AVENIDA,TEXEIRA E SOUZA 956,470,,,CABO FRIO,,,28905-100,-22.884166,-42.026323
RUA,QUINZE 500,473,,,ITUIUTABA,,,38300-134,-18.972923,-49.460476
RUA,JOAQUIM DA SILVA LIMA 167,475,,,GUARAPARI,,,29200-260,-20.671861,-40.497843
RUA,BENTO BERILO 35 43,479,,,ILHEUS,,,45653-270,-14.797009,-39.034121
RUA,CLETO CAMPELO 102,481,,,BELO JARDIM,,,55150-160,-8.342155,-36.429389
AVENIDA,EDSON DA MOTA CORREIA 620 LOJA 141,484,,,CAUCAIA,,,61600-040,-3.7347,-38.650779
ESTRADA,VELHA DE SANTO AMARO DE IPITANGA 44,499,,,SALVADOR,,,41342-315,-12.899246,-38.408698
RUA,GAVIAO PEIXOTO 120 122,501,,,NITEROI,,,24230-101,-22.903108,-43.110657
RUA,FREI CANECA 569 LOJA 309,504,,,SAO PAULO,,,01307-001,-23.553497,-46.65282
LARGO,TREZE DE MAIO 542,506,,,SAO PAULO,,,04751-000,-23.652647,-46.70598
AV,OLEGARIO MACIEL 365 LOJA B,509,,,RIO DE JANEIRO,,,22621-200,-23.011492,-43.304989
AV,CONSELHEIRO ROSA E SILVA 1460 LOJA 1,512,,,RECIFE,,,52050-020,-8.038901,-34.899881
RUA,MARQUES DE SAO VICENTE 37 LOJA A,515,,,RIO DE JANEIRO,,,22451-040,-22.97555023,-43.22789136
RUA,DO GIRIQUITI 48 LJ 35/36,518,,,RECIFE,,,50070-010,-8.060005,-34.887484
AVENIDA,JOHN BOYD DUNLOP 350 SALAO91/97,520,,,CAMPINAS,,,13033-000,-22.90939134,-47.09197959
RUA,SAO CLEMENTE 159 LOJA A BL1,523,,,RIO DE JANEIRO,,,22260-001,-22.949616,-43.187284
AVENIDA,PAULISTA 320 326 LJ B,527,,,SAO PAULO,,,01310-000,-23.569071,-46.646958
RUA,VISCONDE DE PIRAJA 303 LJ D 309 L,529,,,RIO DE JANEIRO,,,22410-003,-22.984242,-43.204391
AVENIDA,WASHINGTON LUIZ 2480 LUC CT N18,542,,,CAMPINAS,,,13042-105,-22.9354326,-47.05098867
RUA,CORONEL MOREIRA CESAR 105 LJ 101/102,545,,,SAO GONCALO,,,24440-400,-22.827494,-43.052998
AV,NILO PECANHA 259,549,,,ARARUAMA,,,28970-000,-22.869697,-42.343425
AVENIDA,CASSIANO RICARDO 521,550,,,SAO JOSE DOS CAMPOS,,,12240-540,-23.22720406,-45.91232225
ESTRADA,DOS TRES RIOS 93 LOJA,554,,,RIO DE JANEIRO,,,22755-001,-22.939426,-43.342729
AV.,SAVIO COTA DE ALMEIDA GAMA 2009,556,,,VOLTA REDONDA,,,27281-421,-22.499117,-44.107833
AVENIDA,THIAGO FERREIRA 819 TERREO,559,,,GUARUJA,,,11450-002,-23.940723,-46.306161
RUA,SANTA CATARINA 198,562,,,SAO CAETANO DO SUL,,,09510-120,-23.612872,-46.571553
RUA,VIGARIO FREIRE 241,565,,,CARUARU,,,55002-200,-8.285706,-35.969676
AV,SETE DE SETEMBRO 443 TERREO,567,,,SUMARE,,,13170-000,-22.823567,-47.266778
AV,NILO PECANHA 495 LJ 1/2,571,,,CABO FRIO,,,28907-000,-22.87877,-42.016437
RUA,TERESA 1515,573,,,PETROPOLIS,,,25635-530,-22.524175,-43.171151
RUA,AMADOR BUENO 219 LUC N10306,588,,,SAO PAULO,,,04752-005,-23.65236,-46.709359
AVENIDA,ANTONIO EMMERICK 413 425 E 433,591,,,SAO VICENTE,,,11390-001,-23.962502,-46.380177
RUA,MACIEL MONTEIRO 422,593,,,SAO PAULO,,,03566-000,-23.539517,-46.490891
ETR,DE ITAIPUACU 0 QD14 L03A,596,,,MARICA,,,24900-000,-22.917804,-42.934423
AVENIDA,MARECHAL TITO 299,599,,,SAO PAULO,,,08010-090,-23.494009,-46.420086
AVENIDA,OLIVEIRA BOTELHO 417 417/1,602,,,TERESOPOLIS,,,25961-145,-22.439418,-42.979782
RUA,DORIVAL MORCONDES GODOY 500 1010/1011,606,,,RESENDE,,,27535-320,-22.4611,-44.440397
ESTRADA,DO LAJEADO VELHO 514 A521 LT1A3,608,,,SAO PAULO,,,08451-000,-23.53665,-46.404173
PRACA,GOVERNADOR VALADARES 65,611,,,CATAGUASES,,,36770-071,-21.384748,-42.692974
RUA,DOUTOR RODRIGUES DE AZEVEDO 291,614,,,LORENA,,,12600-005,-22.732834,-45.121139
RUA,DOUTOR CAMPOS MOURA 311,616,,,SAO PAULO,,,03568-010,-23.541894,-46.483905
AVENIDA,PROFESSOR MARIO WERNECK 1360 2(o) PISO LU,630,,,BELO HORIZONTE,,,30455-610,-19.968914,-43.964818
RUA,SEBASTIAO HUMEL 268 LJ 12 TERR,634,,,SAO JOSE DOS CAMPOS,,,12210-200,-23.18092,-45.88497
AVENIDA,SINFRONIO BROCHADO 735,637,,,BELO HORIZONTE,,,30640-000,-19.976878,-44.019487
AVENIDA,JOAO DE BARROS 2010 LOJA 01,639,,,RECIFE,,,52021-355,-8.037277,-34.89131
AVENIDA,WINSTON CHURCHILL 2567,642,,,CURITIBA,,,81150-050,-25.51901,-49.29546
PRACA,SEVERINA RITA COELHO 43,644,,,JABOATAO DOS GUARARAPES,,,54250-603,-8.11208,-35.0154
AVENIDA,ENGENHEIRO ROBERTO FREIRE 2920 LOJA 78,647,,,NATAL,,,59082-400,-5.872669,-35.180321
RUA,DA GLORIA 190 E 190 A,650,,,RIO DE JANEIRO,,,20241-180,-22.91885,-43.177188
AVENIDA,JOSE BENTO RIBEIRO DANTAS 33 LOJA,653,,,BUZIOS,,,28950-000,-22.74699,-41.88043
RUA,MARQUES DE OLINDA 79 SUC 39,655,,,SIRINHAEM,,,55580-000,-8.299856,-34.994869
RODOVIA,"RAPOSO TAVARES 23500 KM 23,5",658,,,COTIA,,,06709-015,-23.592503,-46.835085
RUA,BENJAMIN CONSTANT 23,660,,,GOIANA,,,55900-000,-7.564417,-35.009739
AVENIDA,RUY RODRIGUEZ 3900 LUC N(o) A-0,678,,,CAMPINAS,,,13056-460,-22.937666,-47.10646
AVENIDA,EMILIO JOHNSON 755,681,,,ALMIRANTE TAMANDARE,,,83501-000,-25.310371,-49.297634
RUA,BERNARDO HORTA 227 LUC 1,683,,,CACHOEIRO DE ITAPEMIRIM,,,29300-795,-20.846209,-41.122032
RUA,GENERAL OSORIO 541,686,,,SANTA BARBARA D'OESTE,,,13450-026,-22.755129,-47.413603
SHIS,CC QI 05 BLOCO F LOJA 210 SUBSOLO PARTE 0,689,,,BRASILIA,,,71615-560,-15.846638,-47.894973
AVENIDA,MIRANDOPOLIS 0,695,,,CAMPINAS,,,13050-470,-22.930433,-47.093907
AVENIDA,XV DE NOVEMBRO 232,698,,,IGUAPE,,,11920-000,-24.708416,-47.555998
PRACA,SANTISSIMO SALVADOR 10 LOJA 14,701,,,CAMPOS DOS GOYTACAZES,,,28010-000,-21.755355,-41.323108
AV,WASHINGTON LUIS 1171 PARTE,802,,,SAO PAULO,,,04662-002,-23.656206,-46.693943
ALAMEDA,ARAGUAIA 1383,805,,,BARUERI,,,06455-000,-23.49854776,-46.84862939
AV,INTERLAGOS 2225,808,,,SAO PAULO,,,04661-100,-23.6745405,-46.6782808
RUA,LAMENHA LINS 1898 PARTE,826,,,CURITIBA,,,80220-080,-25.452546,-49.269693
AV,GENERAL EDGAR FACO 840,831,,,SAO PAULO,,,02924-000,-23.49806343,-46.70674175
RUA,PROFESSOR VALERIO GIULI 104,834,,,SAO PAULO,,,02416-000,-23.48187458,-46.63161814
SEP,NORTE QD 505 CJ D LOJA 85 PARTE 0,837,,,BRASILIA,,,70730-544,-15.879017,-48.03791
AV,MORUMBI 6839 6843,840,,,SAO PAULO,,,05650-002,-23.617482,-46.705344
R,ROCHA POMBO 600 PARTE,843,,,CURITIBA,,,80030-390,-25.413579,-49.259575
R,BARAO DE MESQUITA  238 LJ B,846,,,RIO DE JANEIRO,,,20540-002,-22.922556,-43.233591
AV,CRISTIANO MACHADO 2228 PARTE,850,,,BELO HORIZONTE,,,31170-800,-19.888433,-43.929221
AV,DR NILO PECANHA  2785,852,,,PORTO ALEGRE,,,91330-001,-30.028115,-51.163625
AV,CARLOS GOMES 11,855,,,PORTO ALEGRE,,,90480-003,-30.022146,-51.184552
RUA,DIAS DA CRUZ  637 A 641/647,873,,,RIO DE JANEIRO,,,20720-013,-22.90521,-43.292694
AV,DOUTOR YOJIRO TAKAOKA 474 CENTRO II,876,,,SANTANA DE PARNAIBA,,,06541-038,-23.47508667,-46.86154467
EST,DAS LAGRIMAS 1986,878,,,SAO CAETANO DO SUL,,,09580-500,-23.63225563,-46.58195778
RUA,AFONSO BRAZ 508,882,,,SAO PAULO,,,04511-001,-23.595401,-46.668779
AV,SAO JOAO  2135,884,,,SAO JOSE DOS CAMPOS,,,12242-000,-23.20818826,-45.90828814
R,VOLUNTARIOS DA PATRIA  54 LJ A E B,887,,,RIO DE JANEIRO,,,22270-010,-22.951132,-43.18368
AV,ENGENHEIRO SANTANA JUNIOR 2277 LJ 15 A 18,890,,,FORTALEZA,,,60175-650,-3.745891,-38.489169
AV,NOSSA SENHORA DE COPACABANA  1058 LOJA A,893,,,RIO DE JANEIRO,,,22060-002,-22.978383,-43.19085
R,REPUBLICA ARABE DA SIRIA 383 PARTE,896,,,RIO DE JANEIRO,,,21931-370,-22.805578,-43.20961
AV,DAS AMERICAS 3693 BL II LOJA,899,,,RIO DE JANEIRO,,,22631-003,-23.000396,-43.350337
AV,DA ABOLICAO 2600,917,,,FORTALEZA,,,60165-080,-3.727366,-38.495654
R,CORONEL MOREIRA CESAR 282 LOJA 101 P,923,,,NITEROI,,,24230-063,-22.908239,-43.109281
RUA,FRANCA PINTO  680 LOJA 2,925,,,SAO PAULO,,,04016-003,-23.58783286,-46.64277714
AV,DOUTOR CARLOS BOTELHO  2120 LOJA 06,936,,,SAO CARLOS,,,13560-250,-22.0124611,-47.88099515
R,SACADURA CABRAL 102 PARTE,954,,,RIO DE JANEIRO,,,20081-902,-22.897495,-43.184171
EST,DOS ALPES 555 PARTE,957,,,ITAPEVI,,,06650-000,-23.511944,-46.930536
BR,497 KM 1480 A 0 GP1 ARM 11,962,,,UBERLANDIA,,,38414-583,-18.906609,-48.317583
RODOVIA,"ANHANGUERA 0 KM 37,5",965,,,CAJAMAR,,,07760-000,-21.128272,-47.769132
AVENIDA,CONTORNO NORTE 145 SUC N(o) 101,1199,,,SAO LUIS,,,65054-375,-2.535738,-44.20325
RUA,NHONHO DO LIVRAMENTO 1752,983,,,,,,15910-000,-21.2627,-48.4986
ESTRADA,PRESIDENTE JUSCELINO KUBITSCHEK DE OLIVEIRA 4220,984,,,GUARULHOS,,,07252-000,-23.4427,-46.4079
AV,ELIS YAZBEK 708 LOJA 12,985,,,,,,06803-000,-23.6436,-46.8433
RUA,CORONEL MARTINHO FERREIRA DO AMARAL 263 LOJA SOB,986,,,,,,35519-970,-19.8717,-44.9798
RUA,TRAJANO MACHADO 847 853,987,,,,,,14960-000,-21.4646,-49.2251
AVENIDA,"CENTRAL BLOCOS 525/635 LOTE 615, LOJA E SUBSOLO S/N",988,,,BRASILIA,,,71710-520,-15.8681,-47.9635
AVENIDA,PRESIDENTE VARGAS 11-10 PISO TERRE,989,,,,,,19470-000,-21.9667,-52.2337
RUA,"PREFEITO ASSUMPCAO 378 LJ 1,1B",990,,,,,,27580-000,-22.4944,-44.5623
PRACA,PADRE ARMANI 18,991,,,MOGI GUACU,,,13840-011,-22.3709,-46.9424
RUA,CONDE DE PORTO ALEGRE 93 OT,992,,,SALVADOR,,,40330-201,-12.9582,-38.4888
RUA,SANTO AMARO 468 LOJA,993,,,SAO PAULO,,,01315-000,-23.5539,-46.6407
AVENIDA,TABELIAO PASSARELLA 392,994,,,,,,07600-000,-23.3181,-46.5857
CNM,1 BLOCO B LOJA 01 S/N,995,,,BRASILIA,,,72215-504,-15.8161,-48.1033
AVENIDA,DEPUTADO LUIS EDUARDO MAGALHAES S/N LOJA N 319,996,,,FEIRA DE SANTANA,,,44097-324,-12.2559,-38.9738
RUA,DOUTOR JOAO RIBEIRO 546,997,,,SAO PAULO,,,03634-000,-23.5237,-46.5454
SCR/SUL,QUADRA 516 BLOCO B LOTES 15 /16 S/N,998,,,BRASILIA,,,70381-525,-12.9788,-55.669
AVENIDA,ROBERTO SILVEIRA S/N AREA T01,1000,,,PARATY,,,23970-000,-23.223,-44.732
RUA,"29 DE JULHO 00541 01,02, 101",1047,,,,,,62700-000,-4.36017,-39.3119
RUA,DOUTOR FRANCISCO JOSE FERNANDES 90,1048,,,GUANAMBI,,,46430-000,-14.2082,-42.8248
AVE,FERNANDO GUILHON 5257,1068,,,,,,67200-000,-1.36561,-48.3334
AV,CHANCELER EDSON QUEIROZ 02331,1121,,,CASCAVEL,,,62850-000,-4.13375,-38.2395
PRACA,LUIZ NOGUEIRA 395,1131,,,SERRINHA,,,48700-000,-11.6609,-39.009
RUA,MANOEL HONORATO DA COSTA S/N LUC A-01,1141,,,CAMARAGIBE,,,54759-475,-8.01411,-34.9761
AVENIDA,BARAO DE CAPANEMA 2856,1143,,,,,,68703-025,-1.19542,-47.1942
AVENIDA,FLORES DA CUNHA 1507,1162,,,,,,99500-000,-28.2866,-52.7895
AVENIDA,RIO BRANCO 606,1164,,,ITABERABA,,,46880-000,-12.5324,-40.3057
AVENIDA,BRASIL 6345 LJ 1060 P1,1166,,,JUIZ DE FORA,,,36080-060,-21.74,-43.3713
AVENIDA,PRESIDENTE VARGAS 102,1177,,,SANTO AMARO,,,44200-000,-12.5546,-38.7029
RUA,BRASIL 446 SETOR 01 Q,1179,,,,,,68555-103,-7.10245,-49.9516
VIA,PARAFUSO S/N ESPACO DE,1180,,,CAMACARI,,,42800-970,-12.7063,-38.3194
AVE,DUQUE DE CAXIAS 1393 E 1403,1181,,,BELEM,,,66093-030,-1.43496,-48.4655
RUA,DR JUSTO PEDROSA 272,1191,,,BALSAS,,,65800-000,-7.53162,-46.0374
AVE,JOSE BONIFACIO 2593 E 2603,1193,,,BELEM,,,66065-112,-1.46982,-48.4682
PRACA,JOSE JOAQUIM SEABRA 116,1194,,,,,,45345-000,-13.5362,-39.9402
AVENIDA,JOAQUIM LEITE 646 LOTE A,1197,,,BARRA MANSA,,,27345-390,-22.5447,-44.1738
RUA,CORONEL POMPEU 58,1198,,,,,,62800-000,-4.56221,-37.7697
VLA,DOS CABANOS N.N.U S/N LOTE 10,1201,,,BARCARENA,,,68447-000,-1.51908,-48.6903
RODOVIA,"MG 030 KM 7,6 LOJA 106",1202,,,,,,34000-000,-20.0024,-43.8592
AVE,PARQUE 762,1204,,,ITACOATIARA,,,69100-006,-3.14194,-58.4463
RUA,JULIO DE CASTILHOS 1729,1205,,,CAXIAS DO SUL,,,95010-004,-29.1675,-51.1791
RUA,ANISIO TEIXEIRA 221 SHOPPING B,1206,,,SALVADOR,,,41815-060,-12.9951,-38.4647
AVE,JOAO PAULO II 101,1207,,,BELEM,,,66095-494,-1.43069,-48.4507
RUA,MARECHAL JOSE B BORMANN 91-E LT 27 QD 3,1208,,,CHAPECO,,,89801-050,-27.102,-52.616
QN,304 CONJ. 02 LOTE 01 LOJA 1209 S/N,1209,,,BRASILIA,,,72306-002,-15.8767,-48.0824
AVENIDA,PIAUI 850 LOJA A1,1210,,,,,,65630-901,-5.09258,-42.8226
RUA,GENERAL MARCONDES SALGADO 11,1212,,,BAURU,,,17013-113,-22.3173,-49.066
AVENIDA,SENADOR HELVIDIO NUNES S/N,1213,,,PICOS,,,64607-760,-7.07814,-41.4627
AVENIDA:,SENADOR ATTILIO FRANCISCO XAVIER FONTANA 2904-E,1214,,,CHAPECO,,,89809-506,-27.0971,-52.651
AVENIDA,JOSE PINHEIRO BORGES S/N S/N LJ 410 411,1216,,,SAO PAULO,,,08220-900,-23.5392,-46.4726
RUA,ANTONIO MARQUES 705 QD 85 LT11,1217,,,,,,65636-170,-5.09402,-42.8337
RUA,7 DE SETEMBRO 875,1218,,,AQUIDAUANA,,,79200-000,-20.4767,-55.7915
RUA,IRMA DULCE 550 LOJA 1021/,1219,,,SANTA MARIA,,,97030-630,-29.698,-53.8456
RUA,RAMIRO BARCELOS 1557,1220,,,,,,95780-000,-29.6896,-51.4589
HUMBERTO,PIZZO 999 PISO L1,1221,,,,,,37026-280,-21.5728,-45.4426
AV,DOUTOR SEZEFREDO AZAMBUJA VIEIRA S/N LUC 3049,1222,,,CANOAS,,,92020-020,-29.9188,-51.1489
AVENIDA,BARAO DE GURGUEIA 3160 3160 A,1223,,,TERESINA,,,64019-352,-5.11792,-42.8038
RODOVIA,PE-015 KM 16.5 S/N LOJA ANC 7,1224,,,PAULISTA,,,53401-445,-8.00235,-34.8562
RUA,HORACIO DE MATOS 165,1225,,,,,,46900-000,-12.4181,-41.7703
AVENIDA,PRESIDENTE ARTHUR BERNARDES S/N QD 2-A,1226,,,VARZEA GRANDE,,,78125-100,-15.6526,-56.1218
RODOVIA,DOS TRABALHADORES S/N,1227,,,BELEM,,,66635-894,-1.34765,-48.4106
AVE,NOSSA SENHORA DE FATIMA S/N,1228,,,TERESINA,,,64048-180,-5.08049,-42.7899
AVENIDA,PRESIDENTE GETULIO VARGAS 396,1229,,,,,,37410-000,-21.699,-45.2548
PRACA,JOSE SARNEY S N,1230,,,,,,65200-000,-2.5185,-45.081
AVENIDA,SAO JOAO 257 QUADRA 33,1231,,,PRIMAVERA DO LESTE,,,78850-000,-15.5573,-54.2985
AVENIDA,JOAQUIM AYRES 2393 QD 2 LT 3,1232,,,PORTO NACIONAL,,,77500-000,-10.7035,-48.4124
RUA,SAO PEDRO 1560,1233,,,ITARARE,,,18460-000,-24.1131,-49.3324
AV,DIARIO DE NOTICIAS 300 LOJA 1049,1234,,,PORTO ALEGRE,,,90810-080,-30.0853,-51.2464
RODOVIA,BR-407 5318 QUILOMETRO 05 S/N LUC 1010,1235,,,JUAZEIRO,,,48909-901,-9.45711,-40.4928
PRACA,ROBERTO CINTRA 360,1236,,,,,,44600-000,-12.1565,-39.7406
RUA,E 353 LT 12 A 16,1237,,,PARAUAPEBAS,,,68515-000,-6.06985,-49.9004
AVENIDA,PRESIDENTE ERNESTO GEISEL 2300 SL 140/175,1239,,,CAMPO GRANDE,,,79081-900,-20.4801,-54.6266
AVENIDA,BRASIL 451,1241,,,,,,42850-000,-12.6119,-38.2995
RODOVIA,ALKINDAR MONTEIRO JUNQUEIRA 1013 KM 53 LUC,1243,,,BRAGANCA PAULISTA,,,12900-970,-22.9702,-46.5692
AVENIDA,GOIAS 414,1244,,,GOIANESIA,,,76380-000,-15.3291,-49.1174
RUA,MARECHAL FLORIANO PEIXOTO 100,1245,,,SANTO ESTEVAO,,,44190-000,-12.431,-39.2513
TRAVESSA,PADRE EUTIQUIO 1760 1764 E 178,1246,,,BELEM,,,66033-720,-1.46155,-48.4895
RUA,DUQUE DE CAXIAS 147,1247,,,SAO SEBASTIAO,,,11600-000,-23.8018,-45.4011
AVE,CORONEL TEIXEIRA 5705 SETOR COM,1248,,,MANAUS,,,69037-000,-3.08504,-60.0725
ROD,MUNICIPAL FARUK SALMEN 136 Q167 LT23A,1249,,,PARAUAPEBAS,,,68515-000,-6.08381,-50.4308
AVENIDA,ROTARY 624 LUC SSB200,1250,,,SAO BERNARDO DO CAMPO,,,09721-000,-23.7232,-46.5425
AVN,28 DE MARCO 574 LJS 05/06/,1251,,,CAMPOS DOS GOYTACAZE,,,28020-740,-21.7637,-41.3327
AVENIDA,FERNANDES BASTOS 758,1253,,,TRAMANDAI,,,95590-000,-29.9877,-50.1396
AVENIDA, PERIMETRAL NORTE 8303 EUC N(o) 81,1254,,,GOIANIA,,,74593-841,-16.6309,-49.2771
RUA,VIUVA DANTAS 100 EC 201 A/B,1255,,,RIO DE JANEIRO,,,23052-090,-22.9028,-43.5544
AVENIDA,OLIVEIRA ROMA 23,1256,,,,,,65500-000,-3.73921,-43.3542
RUA,VICTOR KONDER 963,1257,,,,,,89820-000,-26.8753,-52.4091
ROD,AUGUSTO MONTENEGRO S/N,1258,,,BELEM,,,66635-110,-1.30191,-48.4777
RUA,LAURO SODRE 888 A,1259,,,,,,68456-000,-3.76576,-49.6775
AV,ANTONIO CARLOS PANIAGO S/N Q1 LT 07,1260,,,,,,75830-000,-17.5665,-52.564
ROD,RODOVIA BR 316 KM 8 1113,1261,,,ANANINDEUA,,,67030-000,-1.37272,-48.3837
AVE,ALCINDO CACELA 2397,1262,,,BELEM,,,66040-273,-1.45833,-48.477
RUA,DUQUE DE CAXIAS 1753,1263,,,,,,97501-523,-29.7552,-57.0864
RUA,PROF PEDRO VIRIATO PARIGOT D 600 LUCNIVEL S,1264,,,CURITIBA,,,81200-100,-25.4348,-49.3168
AVENIDA,JOSE AMANCIO BISPO SALA LOJA 5419 LOJA ANCOR,1265,,,ITABAIANA,,,49505-330,-10.7163,-37.4214
AVN,ABILIO AUGUSTO TAVORA 1111 EUC4042 43,1266,,,NOVA IGUACU,,,26260-045,-22.7629,-43.4652
AVENIDA,MANOEL IRINEU DE ARAUJO 35,1267,,,,,,56200-000,-7.88181,-40.0881
AVE,WEYNE CAVALCANTE 483,1268,,,,,,68537-000,-6.53469,-49.851
AVENIDA,RAIMUNDO PEREIRA DE MAGALHAES 11001 EUC 2011,1269,,,SAO PAULO,,,02984-035,-23.442,-46.7211
ROD,RODOVIA BR 316 KM 01 S/N LOJA ESP U,1270,,,BELEM,,,66645-900,-1.36179,-48.443
R.,CINCINATO PINTO 167,1271,,,MACEIO,,,57020-050,-9.66309,-35.7406
AV,CORONEL MARTINIANO 882,1272,,,,,,59300-000,-6.46169,-37.0948
AVENIDA,DO DESCOBRIMENTO S/N COM ENTRAD,1273,,,,,,45810-000,-16.4499,-39.0638
AV,DAS CATARATAS 3570 LJ 1006 AN,1274,,,FOZ DO IGUACU,,,85853-000,-25.5689,-54.5584
RUA,FLORIANO PEIXOTO 113 E 119,1275,,,RECIFE,,,50020-060,-8.06551,-34.8823
RUA,24 DE MAIO 01910,1276,,,,,,62400-000,-2.90383,-40.8411
RUA,CARMO TALIBERTI 220,1277,,,,,,13730-010,-21.4668,-46.9993
AVE,DOS HOLANDESES 200 LOJA ANC 0,1278,,,SAO LUIS,,,65071-380,-2.49152,-44.2341
AV,CRUZEIRO DO SUL 1000 LUC 0316 A,1279,,,SAO PAULO,,,03033-020,-23.5264,-46.6254
RUA,DO ACAMPAMENTO 200,1280,,,SANTA MARIA,,,97050-000,-29.6878,-53.8059
R,DOUTOR JOAQUIM NABUCO 113,1281,,,,,,57200-000,-10.2443,-36.4797
PC,PRESIDENTE GETULIO VARGAS 160 ANEXO 176,1283,,,,,,59650-000,-5.46527,-37.04
RUA,10 1,1284,,,SAO LUIS,,,65058-188,-2.57417,-44.2106
AV,AMAZONAS 1001,1285,,,,,,86975-000,-23.5258,-51.6763
RUA,GOIAS 0,1286,,,,,,00000-000,-16.3605,-49.4953
R,DO COMERCIO 173 TERREOPRIM,1287,,,MACEIO,,,57020-000,-9.66216,-35.738
PCA,DA GRACA 704,1289,,,PARNAIBA,,,64200-305,-2.903,-41.7802
-10A,RUA MARECHAL RONDON 3038 SETOR 02 Q,1290,,,,,,76890-000,-10.4495,-62.4851
-10A,RUA JOSE AMADOR DOS REIS 3330,1291,,,PORTO VELHO,,,76829-498,-9.90398,-63.0435
-10A,AVENIDA MARECHAL RONDON 1728 LOJA A/B,1292,,,JI PARANA,,,76900-136,-10.8753,-61.9545
RUA,RUI BARBOSA 400,1293,,,RIO BRANCO,,,69900-084,-9.97287,-67.811
AVENIDA,-NORTE SUL 5104,1294,,,,,,76940-000,-11.7247,-61.7779
RUA,02 788 LOTE URBAN,1295,,,SORRISO,,,78890-000,-13.0866,-55.9064
-10A,RUA GETULIO VARGAS 213 QD 31 ST 2,1296,,,VILHENA,,,76980-084,-12.0417,-60.1185
AV.,DOS EXPEDICIONARIOS 225,1298,,,,,,86600-093,-23.3124,-51.3674
RUA,XV DE NOVEMBRO 582,1299,,,CURITIBA,,,80020-310,-25.43,-49.2684
AVENIDA,PRESIDENTE CASTELO BRANCO 2079 2089,1300,,,MAUA,,,09321-375,-23.6499,-46.4396
R,GAL SAMPAIO 01148,1301,,,FORTALEZA,,,60020-030,-3.72847,-38.5317
AV,RIO GRANDE SUL 1021 QDR 46,1302,,,,,,85960-000,-24.5565,-54.0579
AVE,EDUARDO RIBEIRO 409 LETRA 413,1303,,,MANAUS,,,69010-000,-3.13365,-60.0241
RUA,"FLORES, DR 87",1304,,,PORTO ALEGRE,,,90020-122,-30.028,-51.2249
AVE,LAGUNA 708,1305,,,MANAUS,,,69037-570,-3.08562,-60.0632
C,"02 LOTE 12 LOJA 1, 2, 3 E 5 S/N",1306,,,BRASILIA,,,72010-905,-15.8362,-48.0569
ROD,BR 316 KM 554 4362 LOJA ANC 0,1307,,,CAXIAS,,,65605-295,-4.87835,-43.3358
RUA,TRANSAMAZONICA 222 QUADRA02 B,1308,,,,,,68625-090,-2.99265,-47.3559
AV,BRASIL 6380,1309,,,CASCAVEL,,,85810-000,-24.955,-53.4592
RUA,BARAO DO RIO BRANCO 903,1310,,,,,,14160-040,-21.1368,-47.9917
RUA,DOS ANDRADAS 363,1311,,,,,,97541-001,-29.7845,-55.7955
AVE,AVENIDA 4 DE JULHO 86,1312,,,,,,64260-000,-4.27665,-41.7799
TRV,DOM PEDRO I 1104 1074,1313,,,BELEM,,,66050-100,-1.43962,-48.4841
AV,COLETORA A S/N LOJA ANCOR,1315,,,,,,49160-000,-10.8877,-37.1473
TRV,TREZE DE MAIO 276,1317,,,,,,68180-635,-4.27252,-55.9826
RUA:,NOVE DE MARCO 619,1318,,,JOINVILLE,,,89201-400,-26.3013,-48.8478
AVENIDA,DELMIRO GOUVEIA 400 400 LOJA 322 P,1319,,,ARACAJU,,,49035-900,-10.9687,-37.0372
AVENIDA,MARECHAL RONDON 1137,1320,,,,,,78250-000,-15.2299,-59.334
AVENIDA,BRASIL SN QD 38 LOTE,1321,,,TANGARA DA SERRA,,,78300-970,-5.63775,-35.4233
RUA,CORONEL CLEMENTE DE ARAUJO CASTRO S/N FAIXA 01,1322,,,,,,47640-000,-13.3974,-44.198
AV,SGT HERMINIO SAMPAIO 03100 2072/2073,1323,,,FORTALEZA,,,60355-512,-3.72481,-38.5463
PRACA,CRISTO REDENTOR 2102,1325,,,,,,00000-000,-2.62506,-56.7361
AV,IRAI 856,1326,,,,,,83321-002,-25.4483,-49.1863
AVENIDA,OLIVIA FLORES 2500 1080,1327,,,VITORIA DA CONQUISTA,,,45031-000,-14.8665,-40.8229
RUA,MORAES GORDO 301,1328,,,,,,18650-000,-22.7291,-48.5693
AV,AYRTON SENNA 1995 LOTES 10,1329,,,PARNAMIRIM,,,59151-610,-5.9122,-35.2605
RUA,7 DE SETEMBRO 97,1330,,,,,,98280-000,-28.2915,-53.501
RUA,BENJAMIM CONSTANT 212 Q32 L15,1331,,,ITUMBIARA,,,75503-050,-18.4152,-49.2171
AV,MANDACARU 277 LJ 105 106,1332,,,MARINGA,,,87080-283,-23.4134,-51.9559
ROD,"BR 316, KM 4 4500 LOJA 201 A",1333,,,ANANINDEUA,,,67113-970,-1.3847,-48.4107
AVENIDA,BRASIL 125,1334,,,,,,75860-000,-18.4478,-50.456
R,FILINTO MULLER 628,1335,,,,,,79400-000,-18.5112,-54.7573
RUA,MAL FLORIANO 895,1337,,,,,,96810-052,-29.7194,-52.4278
RUA,BENJAMIN CONSTANT 1160,1338,,,LONDRINA,,,86010-350,-23.3083,-51.1618
AVENIDA,FERNANDO COSTA 177 1-GLJS48/5,1339,,,ANAPOLIS,,,75064-780,-16.2923,-48.9678
AVE,NEWTON BELO 431,1341,,,,,,65390-000,-3.965,-45.661
RUA,-GENERAL OSORIO 160 LOTE 001 Q,1342,,,,,,76970-000,-11.6741,-61.1882
AVENIDA,JUVENAL JOAO VINAGRE 3090 QUADRAL1,1345,,,,,,44470-000,-12.9501,-38.6273
AVENIDA,BOULEVARD THAUMATURGO 338,1346,,,,,,69980-000,-7.62898,-72.6743
RUA,AMAZONAS 3289 E RUA TIET,1347,,,,,,15500-004,-20.4229,-49.9745
PRACA,DOM MAXIMO 51,1349,,,,,,47400-000,-10.8252,-42.732
AVENIDA,CONDE RIBEIRO DO VALLE 468,1350,,,,,,37800-000,-21.3033,-46.7086
QNM,12 (VIA NM 12-A) LOTE 14 E QNM 12,1351,,,ANANINDEUA,,,00000-000,-15.8112,-48.1053
RUA,MARECHAL DEODORO DA FONSECA 116,1353,,,,,,89130-000,-26.896,-49.2346
RUA,FREI BANJAMIM DE BORNO 45,1354,,,,,,65940-000,-5.81695,-46.1435
RUA,MAGALHAES DE ALMEIDA SN QUADRA35 L,1355,,,,,,65760-000,-5.25999,-44.4748
AVE,NOVA ALTAMIRA 1851 LUC ANCORA,1356,,,ALTAMIRA,,,68378-329,-3.18427,-52.235
RUA,JACY TEIXEIRA CAMARGO 940 940,1357,,,CAMPINAS,,,13050-913,-22.9328,-47.0776
AVENIDA,LAURA PACHECO BASTOS S/N,1358,,,GUARAPUAVA,,,85053-525,-25.3497,-51.4797
AVENIDA,GOIAS 1183 30 AREA,1359,,,JATAI,,,75800-012,-17.8866,-51.7147
PAES,DE CARVALHO 1001,1361,,,CASTANHAL,,,68745-197,-1.29212,-47.9249
AV,ARAPONGAS 779 LJ 803,1362,,,,,,86700-050,-23.411,-51.4365
TRV,MOJU 28,1364,,,,,,68695-000,-2.94337,-48.9481
RUA,DOUTOR FAUSTO FIGUEIREDO 1074 RUA CONSEL,1365,,,,,,55540-000,-8.64649,-35.6314
AV,AGENOR ARAUJO 00440 ANEXO A,1366,,,,,,63500-110,-6.36029,-39.2966
RUA,JOAQUIM NABUCO 625,1367,,,PRESIDENTE PRUDENTE,,,19010-071,-22.1234,-51.3874
AVE,AUTAZ MIRIM 6100 LJ LUC 220,1368,,,MANAUS,,,69085-000,-3.06165,-59.9501
ROD,DO MARIO COVAS 32 A,1369,,,ANANINDEUA,,,67115-000,-1.37926,-48.4129
RUA,BENEDITO ALMEIDA 216,1370,,,,,,45300-000,-13.0291,-39.605
RUA,CEL ARTHUR WHITACKER 160,1371,,,,,,13690-000,-21.9008,-47.6191
RUA,FRANCISCO QUEIROZ 654,1372,,,MANAUS,,,00000-000,-3.02995,-60.0011
AVE,DOS ESTADOS SN,1373,,,,,,68385-000,-6.86046,-51.431
AVE,CRISTO REI 423,1374,,,,,,68590-000,-4.44367,-49.1147
RUA,ORCINE FERNANDES 151 QUADRA 03,1375,,,,,,58340-000,-7.09602,-35.2303
RUA,BOULEVARD MELO PALHETA 187,1378,,,,,,68780-000,-0.854734,-48.1463
AVENIDA,ESTER 467,5001,,,,,,13150-000,-22.6443,-47.197
R,CEL CARLOS PIOLI SN,5002,,,,,,83540-000,-25.1925,-49.3146
QS,412 CONJUNTO D LOTE 01 SN,5003,,,BRASILIA,,,72320-554,-15.8735,-48.105
AVENIDA,GOVERNADOR VALADARES 689,5004,,,,,,38610-000,-16.3593,-46.9042
PRACA,CONEGO SIQUEIRA 17,5005,,,,,,12530-000,-23.0736,-44.958
AVENIDA,QUINZE DE NOVEMBRO 1130,5006,,,,,,15990-170,-21.6028,-48.3649
RUA,MANOEL JOSE SALOMAO 441,5007,,,,,,65950-000,-16.6954,-49.2654
PRACA,NOSSA SENHORA DA CONCEICAO 48,5008,,,,,,16700-000,-21.2906,-50.6379
RUA,ALPHEU MARCHON 150,5009,,,CASIMIRO DE ABREU,,,28860-000,-22.4783,-42.2027
AVENIDA,TAMOIOS 625,5010,,,,,,17601-000,-21.9285,-50.5118
RUA,TENENTE JOAQUIM NOGUEIRA DE QUEIROZ 00259,5011,,,,,,62870-000,-4.17344,-38.4612
RUA,BELEM 556 QUADRA 13,5012,,,,,,78840-000,-15.5562,-55.1607
RUA,VICENTE DE PAULA LIMA 407,5013,,,,,,14150-000,-21.198,-47.5971
AV,CORONEL DOMICIANO 147,5014,,,,,,00000-000,-22.665,-45.0078
AVENIDA,RIO BRANCO 551,5015,,,,,,17800-000,-21.6867,-51.0738
RUA,GENERAL POTIGUARA 2976,5016,,,CURITIBA,,,00000-000,-25.4783,-49.3255
AVENIDA,FERNAO DIAS PAES LEME 2222 LOJA N 501,5017,,,,,,13220-005,-23.2098,-46.8464
RUA,9 DE JULHO 649,5018,,,,,,14840-000,-21.3581,-48.2268
AV,GETULIO VARGAS 657 LJS 3 A 5,5019,,,,,,83301-010,-25.4459,-49.0644
RUA,JOSE LEONEL PUPO 387,5020,,,,,,14180-000,-21.0237,-48.0373
RUA,VOLUNTARIOS DA PATRIA 335,5021,,,RIO DE JANEIRO,,,22270-003,-22.9545,-43.1925
RUA,MARIZ E BARROS 824 LOJ F,5022,,,RIO DE JANEIRO,,,20270-002,-22.9157,-43.2218
AV,XV DE NOVEMBRO 716,5023,,,,,,86300-000,-23.1848,-50.6487
RUA,NOVE DE JULHO 1003,5024,,,,,,16800-000,-21.1329,-51.1024
AVN,JOSE BENTO RIBEIRO DANTAS S/N LJ LOTE 53,5025,,,,,,28950-000,-22.7705,-41.9116
RUA,COM ARAUJO 117,5026,,,CURITIBA,,,80420-000,-25.4345,-49.2774
RODOVIA,BR-497 S/N KM 1480,5027,,,UBERLANDIA,,,38414-583,-18.9118,-48.2621
RODOVIA,BR-101 SUL 9415 GALPAO A,5028,,,CABO DE SANTO AGOSTINHO,,,54503-010,-8.03689,-34.9414
ESTRADA,DOS ALPES 555 555 ARMZ LASA,5029,,,ITAPEVI,,,06696-900,-23.5152,-46.9292
ETR,DE MIGUEL PEREIRA 125 GALPAO:1A,5030,,,SEROPEDICA,,,23893-890,-22.4907,-43.4471
AV,"FLORES DA CUNHA, GEN 1530",5031,,,CACHOEIRINHA,,,94910-002,-29.9497,-51.0989
RUA,DUQUE DE CAXIAS 133 135 E 137,5032,,,ARACATUBA,,,16010-410,-21.207,-50.4415
RUA,PERNAMBUCO 1156 N 1164 SEG,5033,,,BELO HORIZONTE,,,30130-154,-19.9375,-43.9355
AV,MAL FLORIANO PEIXOTO 929,5034,,,,,,99300-000,-28.8373,-52.5129
RUA,PRIMEIRO DE MARCO 21 LOJA 21A,5035,,,RIO DE JANEIRO,,,20010-000,-22.9026,-43.1759
AVENIDA,NOSSA SENHORA DE FATIMA 833 LOJAS 22 A,5036,,,COTIA,,,06717-210,-23.6056,-46.927
OUT,11 DE JUNHO 301 QUADRA: 30,5037,,,,,,79150-000,-20.4593,-54.6213
RUA,NAVARRO DE ANDRADE 663,5038,,,,,,15775-000,-20.1966,-50.9253
AV,MAL FLORIANO PEIXOTO 4984 LJ LT 150,5039,,,CURITIBA,,,81630-000,-25.4725,-49.2523
RUA,LARGO DOM JOAO 62,5040,,,,,,39100-000,-18.2463,-43.6027
RUA,CORONEL OLIVEIRA 112,5041,,,,,,37795-000,-22.0697,-46.5708
RUA,MARECHAL DEODORO 438.,5042,,,FEIRA DE SANTANA,,,44002-064,-12.2591,-38.9666
AVE,VITORIA 102 E SUBSOLO,5043,,,,,,29830-000,-18.7109,-40.3982
ETR,DO GALEAO 2879 LOJ A,5044,,,RIO DE JANEIRO,,,21941-353,-22.8062,-43.2121
PRACA,CORONEL JOAO ROSA 188,5045,,,,,,18170-000,-23.7118,-47.4178
RUA,ALBERICO FLORES BUENO 371 LJ 07 FDO,5046,,,CURITIBA,,,82840-170,-25.3965,-49.2085
RUA,OSVALDO DEWAY 132 LOJA 1,5047,,,SALVADOR,,,40720-318,-12.8653,-38.4765
AVN,NOSSA SENHORA DE COPACABANA 00845 A LOJA,5049,,,RIO DE JANEIRO,,,22060-001,-22.9743,-43.1889
RUA,JARBAS FERREIRA PIRES 465 LOJA 01,5050,,,,,,35588-000,-20.2835,-45.5399
ALMIRANTE,MARQUES DE LEAO 54 LOJA 154,5051,,,SALVADOR,,,40140-230,-13.0096,-38.5315
AV,"AYRTON SENNA 5500 LOJAS 11,",5052,,,,,,22775-005,-22.9758,-43.3636
AVENIDA,GETULIO VARGAS 663,5054,,,FEIRA DE SANTANA,,,44001-325,-12.2556,-38.9593
RUA,INACIO FRANCO 1185,5055,,,,,,14640-000,-20.7356,-48.061
AVENIDA,DOUTOR FERNANDO ARENS 210,5057,,,,,,13160-000,-22.5836,-47.1602
AVN,JANE MARIA MARTINS FIGUEIRA 451 LOJA:01,5059,,,RIO DAS OSTRAS,,,28896-052,-22.5109,-41.9295
RUA,MAJOR PRADO 462,5060,,,JAU,,,17201-450,-22.2952,-48.5568
PRACA,DOM PEDRO II 47,5061,,,INDAIATUBA,,,13330-080,-23.0869,-47.2144
AVE,SEGUNDA AVENIDA 443,5064,,,SERRA,,,29165-390,-20.1982,-40.2522
AV,JACOB MACANHAN 468 LJ 05 TER,5065,,,,,,83320-392,-25.4285,-49.1833
